{
"type": "FeatureCollection",
"name": "postesource_test",
"crs": { "type": "name", "properties": { "name": "urn:ogc:def:crs:OGC:1.3:CRS84" } },
"features": [
{ "type": "Feature", "properties": { "id": 211, "name": "Cavalaire-sur-Mer", "code_commune": "83036", "code_departement": "83", "created_at": "2026-02-25T08:48:38.080Z" }, "geometry": { "type": "Point", "coordinates": [ 6.518357007593239, 43.18268690688447 ] } },
{ "type": "Feature", "properties": { "id": 212, "name": "Hyères", "code_commune": "83069", "code_departement": "83", "created_at": "2026-02-25T08:48:38.080Z" }, "geometry": { "type": "Point", "coordinates": [ 6.152762769407146, 43.134144384996183 ] } },
{ "type": "Feature", "properties": { "id": 213, "name": "Carqueiranne", "code_commune": "83034", "code_departement": "83", "created_at": "2026-02-25T08:48:38.080Z" }, "geometry": { "type": "Point", "coordinates": [ 6.08913842590932, 43.107462547320459 ] } },
{ "type": "Feature", "properties": { "id": 214, "name": "Bormes-les-Mimosas", "code_commune": "83019", "code_departement": "83", "created_at": "2026-02-25T08:48:38.080Z" }, "geometry": { "type": "Point", "coordinates": [ 6.357349480246262, 43.140328320536206 ] } },
{ "type": "Feature", "properties": { "id": 215, "name": "Carnoules", "code_commune": "83033", "code_departement": "83", "created_at": "2026-02-25T08:48:38.080Z" }, "geometry": { "type": "Point", "coordinates": [ 6.174351473377747, 43.29696424920634 ] } },
{ "type": "Feature", "properties": { "id": 216, "name": "Le Cannet-des-Maures", "code_commune": "83031", "code_departement": "83", "created_at": "2026-02-25T08:48:38.080Z" }, "geometry": { "type": "Point", "coordinates": [ 6.383297468344121, 43.421886024752474 ] } },
{ "type": "Feature", "properties": { "id": 217, "name": "Trans-en-Provence", "code_commune": "83141", "code_departement": "83", "created_at": "2026-02-25T08:48:38.080Z" }, "geometry": { "type": "Point", "coordinates": [ 6.475076946071489, 43.509675810306909 ] } },
{ "type": "Feature", "properties": { "id": 218, "name": "Cogolin", "code_commune": "83042", "code_departement": "83", "created_at": "2026-02-25T08:48:38.080Z" }, "geometry": { "type": "Point", "coordinates": [ 6.569542449048627, 43.260112770117978 ] } },
{ "type": "Feature", "properties": { "id": 219, "name": "Grimaud", "code_commune": "83068", "code_departement": "83", "created_at": "2026-02-25T08:48:38.081Z" }, "geometry": { "type": "Point", "coordinates": [ 6.553925800916081, 43.266581056208175 ] } },
{ "type": "Feature", "properties": { "id": 220, "name": "Sainte-Maxime", "code_commune": "83115", "code_departement": "83", "created_at": "2026-02-25T08:48:38.081Z" }, "geometry": { "type": "Point", "coordinates": [ 6.645548293200629, 43.322432628710793 ] } },
{ "type": "Feature", "properties": { "id": 221, "name": "Saint-Raphaël", "code_commune": "83118", "code_departement": "83", "created_at": "2026-02-25T08:48:38.081Z" }, "geometry": { "type": "Point", "coordinates": [ 6.808919600333474, 43.429396555017732 ] } },
{ "type": "Feature", "properties": { "id": 222, "name": "Fréjus", "code_commune": "83061", "code_departement": "83", "created_at": "2026-02-25T08:48:38.081Z" }, "geometry": { "type": "Point", "coordinates": [ 6.732299248578576, 43.437453742028396 ] } },
{ "type": "Feature", "properties": { "id": 223, "name": "Puget-sur-Argens", "code_commune": "83099", "code_departement": "83", "created_at": "2026-02-25T08:48:38.081Z" }, "geometry": { "type": "Point", "coordinates": [ 6.680992440939998, 43.452287325434732 ] } },
{ "type": "Feature", "properties": { "id": 224, "name": "Beausoleil", "code_commune": "06012", "code_departement": "06", "created_at": "2026-02-25T08:48:38.081Z" }, "geometry": { "type": "Point", "coordinates": [ 7.419089668816366, 43.741483016167372 ] } },
{ "type": "Feature", "properties": { "id": 225, "name": "Drap", "code_commune": "06054", "code_departement": "06", "created_at": "2026-02-25T08:48:38.081Z" }, "geometry": { "type": "Point", "coordinates": [ 7.319454464958686, 43.746632588815466 ] } },
{ "type": "Feature", "properties": { "id": 226, "name": "Nice", "code_commune": "06088", "code_departement": "06", "created_at": "2026-02-25T08:48:38.081Z" }, "geometry": { "type": "Point", "coordinates": [ 7.28537771971383, 43.707986590923156 ] } },
{ "type": "Feature", "properties": { "id": 227, "name": "Beaulieu-sur-Mer", "code_commune": "06011", "code_departement": "06", "created_at": "2026-02-25T08:48:38.081Z" }, "geometry": { "type": "Point", "coordinates": [ 7.3275694814466, 43.702301862473007 ] } },
{ "type": "Feature", "properties": { "id": 228, "name": "Antibes", "code_commune": "06004", "code_departement": "06", "created_at": "2026-02-25T08:48:38.081Z" }, "geometry": { "type": "Point", "coordinates": [ 7.1011706462243, 43.58423073008327 ] } },
{ "type": "Feature", "properties": { "id": 229, "name": "Cannes", "code_commune": "06029", "code_departement": "06", "created_at": "2026-02-25T08:48:38.081Z" }, "geometry": { "type": "Point", "coordinates": [ 7.02517920506976, 43.557191951245208 ] } },
{ "type": "Feature", "properties": { "id": 230, "name": "Cannes", "code_commune": "06029", "code_departement": "06", "created_at": "2026-02-25T08:48:38.081Z" }, "geometry": { "type": "Point", "coordinates": [ 6.958379412794055, 43.552667695795698 ] } },
{ "type": "Feature", "properties": { "id": 231, "name": "Peymeinade", "code_commune": "06095", "code_departement": "06", "created_at": "2026-02-25T08:48:38.081Z" }, "geometry": { "type": "Point", "coordinates": [ 6.889998561199606, 43.640122704296957 ] } },
{ "type": "Feature", "properties": { "id": 232, "name": "Mouans-Sartoux", "code_commune": "06084", "code_departement": "06", "created_at": "2026-02-25T08:48:38.081Z" }, "geometry": { "type": "Point", "coordinates": [ 6.986525953286808, 43.640746920644581 ] } },
{ "type": "Feature", "properties": { "id": 233, "name": "Mougins", "code_commune": "06085", "code_departement": "06", "created_at": "2026-02-25T08:48:38.081Z" }, "geometry": { "type": "Point", "coordinates": [ 7.007768964090349, 43.584363949309257 ] } },
{ "type": "Feature", "properties": { "id": 234, "name": "Biot", "code_commune": "06018", "code_departement": "06", "created_at": "2026-02-25T08:48:38.081Z" }, "geometry": { "type": "Point", "coordinates": [ 7.067471566107829, 43.616838130458518 ] } },
{ "type": "Feature", "properties": { "id": 235, "name": "Grasse", "code_commune": "06069", "code_departement": "06", "created_at": "2026-02-25T08:48:38.081Z" }, "geometry": { "type": "Point", "coordinates": [ 6.934473298768413, 43.660839671429464 ] } },
{ "type": "Feature", "properties": { "id": 236, "name": "Gourdon", "code_commune": "06068", "code_departement": "06", "created_at": "2026-02-25T08:48:38.081Z" }, "geometry": { "type": "Point", "coordinates": [ 6.991955657621971, 43.72120491542514 ] } },
{ "type": "Feature", "properties": { "id": 237, "name": "Vence", "code_commune": "06157", "code_departement": "06", "created_at": "2026-02-25T08:48:38.081Z" }, "geometry": { "type": "Point", "coordinates": [ 7.10518539507321, 43.711452330321528 ] } },
{ "type": "Feature", "properties": { "id": 238, "name": "Cagnes-sur-Mer", "code_commune": "06027", "code_departement": "06", "created_at": "2026-02-25T08:48:38.081Z" }, "geometry": { "type": "Point", "coordinates": [ 7.130117958800685, 43.661315061001773 ] } },
{ "type": "Feature", "properties": { "id": 239, "name": "Nice", "code_commune": "06088", "code_departement": "06", "created_at": "2026-02-25T08:48:38.081Z" }, "geometry": { "type": "Point", "coordinates": [ 7.206758830840202, 43.676260770125445 ] } },
{ "type": "Feature", "properties": { "id": 240, "name": "Nice", "code_commune": "06088", "code_departement": "06", "created_at": "2026-02-25T08:48:38.081Z" }, "geometry": { "type": "Point", "coordinates": [ 7.251063087916723, 43.701724368930421 ] } },
{ "type": "Feature", "properties": { "id": 241, "name": "Nice", "code_commune": "06088", "code_departement": "06", "created_at": "2026-02-25T08:48:38.081Z" }, "geometry": { "type": "Point", "coordinates": [ 7.253857227938494, 43.729899215641787 ] } },
{ "type": "Feature", "properties": { "id": 242, "name": "Nice", "code_commune": "06088", "code_departement": "06", "created_at": "2026-02-25T08:48:38.081Z" }, "geometry": { "type": "Point", "coordinates": [ 7.187108561046852, 43.718138970409477 ] } },
{ "type": "Feature", "properties": { "id": 243, "name": "Carros", "code_commune": "06033", "code_departement": "06", "created_at": "2026-02-25T08:48:38.081Z" }, "geometry": { "type": "Point", "coordinates": [ 7.191277374583282, 43.802366492552729 ] } },
{ "type": "Feature", "properties": { "id": 244, "name": "Bonson", "code_commune": "06021", "code_departement": "06", "created_at": "2026-02-25T08:48:38.081Z" }, "geometry": { "type": "Point", "coordinates": [ 7.195624732523195, 43.854138815692856 ] } },
{ "type": "Feature", "properties": { "id": 245, "name": "Clans", "code_commune": "06042", "code_departement": "06", "created_at": "2026-02-25T08:48:38.081Z" }, "geometry": { "type": "Point", "coordinates": [ 7.137522346675674, 44.0028986921956 ] } },
{ "type": "Feature", "properties": { "id": 246, "name": "Roquebillière", "code_commune": "06103", "code_departement": "06", "created_at": "2026-02-25T08:48:38.081Z" }, "geometry": { "type": "Point", "coordinates": [ 7.307309332902141, 44.021736650505034 ] } },
{ "type": "Feature", "properties": { "id": 247, "name": "Contes", "code_commune": "06048", "code_departement": "06", "created_at": "2026-02-25T08:48:38.081Z" }, "geometry": { "type": "Point", "coordinates": [ 7.335061387240555, 43.782809362740387 ] } },
{ "type": "Feature", "properties": { "id": 248, "name": "Sospel", "code_commune": "06136", "code_departement": "06", "created_at": "2026-02-25T08:48:38.081Z" }, "geometry": { "type": "Point", "coordinates": [ 7.477344086947403, 43.882575166512886 ] } },
{ "type": "Feature", "properties": { "id": 249, "name": "Menton", "code_commune": "06083", "code_departement": "06", "created_at": "2026-02-25T08:48:38.081Z" }, "geometry": { "type": "Point", "coordinates": [ 7.494151645215522, 43.784015979904282 ] } },
{ "type": "Feature", "properties": { "id": 250, "name": "Tende", "code_commune": "06163", "code_departement": "06", "created_at": "2026-02-25T08:48:38.081Z" }, "geometry": { "type": "Point", "coordinates": [ 7.585855863669893, 44.047695245391893 ] } },
{ "type": "Feature", "properties": { "id": 251, "name": "Saint-Étienne-de-Tinée", "code_commune": "06120", "code_departement": "06", "created_at": "2026-02-25T08:48:38.081Z" }, "geometry": { "type": "Point", "coordinates": [ 6.949462208534885, 44.236505605862199 ] } },
{ "type": "Feature", "properties": { "id": 252, "name": "Isola", "code_commune": "06073", "code_departement": "06", "created_at": "2026-02-25T08:48:38.081Z" }, "geometry": { "type": "Point", "coordinates": [ 7.053337763410351, 44.186899453702409 ] } },
{ "type": "Feature", "properties": { "id": 253, "name": "Isola", "code_commune": "06073", "code_departement": "06", "created_at": "2026-02-25T08:48:38.082Z" }, "geometry": { "type": "Point", "coordinates": [ 7.150331248540398, 44.189740903414886 ] } },
{ "type": "Feature", "properties": { "id": 254, "name": "Guillaumes", "code_commune": "06071", "code_departement": "06", "created_at": "2026-02-25T08:48:38.082Z" }, "geometry": { "type": "Point", "coordinates": [ 6.854088843536054, 44.067340560838119 ] } },
{ "type": "Feature", "properties": { "id": 255, "name": "Allos", "code_commune": "04006", "code_departement": "04", "created_at": "2026-02-25T08:48:38.082Z" }, "geometry": { "type": "Point", "coordinates": [ 6.579358604457486, 44.274042748098303 ] } },
{ "type": "Feature", "properties": { "id": 256, "name": "La Condamine-Châtelard", "code_commune": "04062", "code_departement": "04", "created_at": "2026-02-25T08:48:38.082Z" }, "geometry": { "type": "Point", "coordinates": [ 6.749275077946477, 44.461912223550087 ] } },
{ "type": "Feature", "properties": { "id": 257, "name": "Embrun", "code_commune": "05046", "code_departement": "05", "created_at": "2026-02-25T08:48:38.082Z" }, "geometry": { "type": "Point", "coordinates": [ 6.505519311756712, 44.56469875849772 ] } },
{ "type": "Feature", "properties": { "id": 258, "name": "Barcelonnette", "code_commune": "04019", "code_departement": "04", "created_at": "2026-02-25T08:48:38.082Z" }, "geometry": { "type": "Point", "coordinates": [ 6.628427784385639, 44.379402109821221 ] } },
{ "type": "Feature", "properties": { "id": 259, "name": "Selonnet", "code_commune": "04203", "code_departement": "04", "created_at": "2026-02-25T08:48:38.082Z" }, "geometry": { "type": "Point", "coordinates": [ 6.324616129769659, 44.376077737916717 ] } },
{ "type": "Feature", "properties": { "id": 260, "name": "Rousset-Serre-Ponçon", "code_commune": "05127", "code_departement": "05", "created_at": "2026-02-25T08:48:38.082Z" }, "geometry": { "type": "Point", "coordinates": [ 6.26790607323205, 44.469562885561174 ] } },
{ "type": "Feature", "properties": { "id": 261, "name": "La Rochette", "code_commune": "05124", "code_departement": "05", "created_at": "2026-02-25T08:48:38.082Z" }, "geometry": { "type": "Point", "coordinates": [ 6.136150688973689, 44.578075333383261 ] } },
{ "type": "Feature", "properties": { "id": 262, "name": "Digne-les-Bains", "code_commune": "04070", "code_departement": "04", "created_at": "2026-02-25T08:48:38.082Z" }, "geometry": { "type": "Point", "coordinates": [ 6.229055221046409, 44.092368654008084 ] } },
{ "type": "Feature", "properties": { "id": 263, "name": "Roumoules", "code_commune": "04172", "code_departement": "04", "created_at": "2026-02-25T08:48:38.082Z" }, "geometry": { "type": "Point", "coordinates": [ 6.157346440587861, 43.789591065538417 ] } },
{ "type": "Feature", "properties": { "id": 264, "name": "La Mure-Argens", "code_commune": "04136", "code_departement": "04", "created_at": "2026-02-25T08:48:38.082Z" }, "geometry": { "type": "Point", "coordinates": [ 6.517773713310063, 43.976417368523222 ] } },
{ "type": "Feature", "properties": { "id": 265, "name": "Entrevaux", "code_commune": "04076", "code_departement": "04", "created_at": "2026-02-25T08:48:38.082Z" }, "geometry": { "type": "Point", "coordinates": [ 6.846131792136314, 43.95253462130011 ] } },
{ "type": "Feature", "properties": { "id": 266, "name": "Valderoure", "code_commune": "06154", "code_departement": "06", "created_at": "2026-02-25T08:48:38.082Z" }, "geometry": { "type": "Point", "coordinates": [ 6.648267298596608, 43.788160587773881 ] } },
{ "type": "Feature", "properties": { "id": 267, "name": "Demandolx", "code_commune": "04069", "code_departement": "04", "created_at": "2026-02-25T08:48:38.082Z" }, "geometry": { "type": "Point", "coordinates": [ 6.539646148198117, 43.878225431942198 ] } },
{ "type": "Feature", "properties": { "id": 268, "name": "Castellane", "code_commune": "04039", "code_departement": "04", "created_at": "2026-02-25T08:48:38.082Z" }, "geometry": { "type": "Point", "coordinates": [ 6.537553399198793, 43.845347996050954 ] } },
{ "type": "Feature", "properties": { "id": 269, "name": "Saint-Cézaire-sur-Siagne", "code_commune": "06118", "code_departement": "06", "created_at": "2026-02-25T08:48:38.082Z" }, "geometry": { "type": "Point", "coordinates": [ 6.760471128070513, 43.672721538338912 ] } },
{ "type": "Feature", "properties": { "id": 270, "name": "Tourrettes", "code_commune": "83138", "code_departement": "83", "created_at": "2026-02-25T08:48:38.082Z" }, "geometry": { "type": "Point", "coordinates": [ 6.716993714206405, 43.608491835632151 ] } },
{ "type": "Feature", "properties": { "id": 271, "name": "Tanneron", "code_commune": "83133", "code_departement": "83", "created_at": "2026-02-25T08:48:38.082Z" }, "geometry": { "type": "Point", "coordinates": [ 6.841325514873919, 43.601796223241756 ] } },
{ "type": "Feature", "properties": { "id": 272, "name": "Draguignan", "code_commune": "83050", "code_departement": "83", "created_at": "2026-02-25T08:48:38.082Z" }, "geometry": { "type": "Point", "coordinates": [ 6.444477222115367, 43.540154162001294 ] } },
{ "type": "Feature", "properties": { "id": 273, "name": "Salernes", "code_commune": "83121", "code_departement": "83", "created_at": "2026-02-25T08:48:38.082Z" }, "geometry": { "type": "Point", "coordinates": [ 6.250035061450602, 43.561412253007589 ] } },
{ "type": "Feature", "properties": { "id": 274, "name": "Barjols", "code_commune": "83012", "code_departement": "83", "created_at": "2026-02-25T08:48:38.082Z" }, "geometry": { "type": "Point", "coordinates": [ 6.009249282288359, 43.549271553223932 ] } },
{ "type": "Feature", "properties": { "id": 275, "name": "Vinon-sur-Verdon", "code_commune": "83150", "code_departement": "83", "created_at": "2026-02-25T08:48:38.082Z" }, "geometry": { "type": "Point", "coordinates": [ 5.82597367613887, 43.725059999292554 ] } },
{ "type": "Feature", "properties": { "id": 276, "name": "Meyrargues", "code_commune": "13059", "code_departement": "13", "created_at": "2026-02-25T08:48:38.082Z" }, "geometry": { "type": "Point", "coordinates": [ 5.514023506657472, 43.643979137961225 ] } },
{ "type": "Feature", "properties": { "id": 277, "name": "Aix-en-Provence", "code_commune": "13001", "code_departement": "13", "created_at": "2026-02-25T08:48:38.082Z" }, "geometry": { "type": "Point", "coordinates": [ 5.4358673416387, 43.519958279686868 ] } },
{ "type": "Feature", "properties": { "id": 278, "name": "Aix-en-Provence", "code_commune": "13001", "code_departement": "13", "created_at": "2026-02-25T08:48:38.082Z" }, "geometry": { "type": "Point", "coordinates": [ 5.455315252442497, 43.532636058705762 ] } },
{ "type": "Feature", "properties": { "id": 279, "name": "Aix-en-Provence", "code_commune": "13001", "code_departement": "13", "created_at": "2026-02-25T08:48:38.082Z" }, "geometry": { "type": "Point", "coordinates": [ 5.427140759790428, 43.518272471060286 ] } },
{ "type": "Feature", "properties": { "id": 280, "name": "Éguilles", "code_commune": "13032", "code_departement": "13", "created_at": "2026-02-25T08:48:38.082Z" }, "geometry": { "type": "Point", "coordinates": [ 5.355801650438516, 43.54425244389909 ] } },
{ "type": "Feature", "properties": { "id": 281, "name": "La Roque-d'Anthéron", "code_commune": "13084", "code_departement": "13", "created_at": "2026-02-25T08:48:38.082Z" }, "geometry": { "type": "Point", "coordinates": [ 5.35613815416691, 43.711426800045494 ] } },
{ "type": "Feature", "properties": { "id": 282, "name": "Pertuis", "code_commune": "84089", "code_departement": "84", "created_at": "2026-02-25T08:48:38.082Z" }, "geometry": { "type": "Point", "coordinates": [ 5.512212355018951, 43.706708245465869 ] } },
{ "type": "Feature", "properties": { "id": 283, "name": "Apt", "code_commune": "84003", "code_departement": "84", "created_at": "2026-02-25T08:48:38.082Z" }, "geometry": { "type": "Point", "coordinates": [ 5.375859497678428, 43.889614102157758 ] } },
{ "type": "Feature", "properties": { "id": 284, "name": "Limans", "code_commune": "04104", "code_departement": "04", "created_at": "2026-02-25T08:48:38.082Z" }, "geometry": { "type": "Point", "coordinates": [ 5.741915545112381, 44.002103941029283 ] } },
{ "type": "Feature", "properties": { "id": 285, "name": "Sainte-Tulle", "code_commune": "04197", "code_departement": "04", "created_at": "2026-02-25T08:48:38.082Z" }, "geometry": { "type": "Point", "coordinates": [ 5.773991027558385, 43.786880744588721 ] } },
{ "type": "Feature", "properties": { "id": 286, "name": "Manosque", "code_commune": "04112", "code_departement": "04", "created_at": "2026-02-25T08:48:38.082Z" }, "geometry": { "type": "Point", "coordinates": [ 5.776773675054552, 43.831021661583712 ] } },
{ "type": "Feature", "properties": { "id": 287, "name": "Villeneuve", "code_commune": "04242", "code_departement": "04", "created_at": "2026-02-25T08:48:38.083Z" }, "geometry": { "type": "Point", "coordinates": [ 5.863916131168539, 43.87688151291983 ] } },
{ "type": "Feature", "properties": { "id": 288, "name": "Château-Arnoux-Saint-Auban", "code_commune": "04049", "code_departement": "04", "created_at": "2026-02-25T08:48:38.083Z" }, "geometry": { "type": "Point", "coordinates": [ 6.00286877651554, 44.073699606735424 ] } },
{ "type": "Feature", "properties": { "id": 289, "name": "Sisteron", "code_commune": "04209", "code_departement": "04", "created_at": "2026-02-25T08:48:38.083Z" }, "geometry": { "type": "Point", "coordinates": [ 5.920944133790915, 44.213464861042063 ] } },
{ "type": "Feature", "properties": { "id": 290, "name": "Ventavon", "code_commune": "05178", "code_departement": "05", "created_at": "2026-02-25T08:48:38.083Z" }, "geometry": { "type": "Point", "coordinates": [ 5.917142041619322, 44.340647336271601 ] } },
{ "type": "Feature", "properties": { "id": 291, "name": "Gap", "code_commune": "05061", "code_departement": "05", "created_at": "2026-02-25T08:48:38.083Z" }, "geometry": { "type": "Point", "coordinates": [ 6.07276578414342, 44.55559797322546 ] } },
{ "type": "Feature", "properties": { "id": 292, "name": "Veynes", "code_commune": "05179", "code_departement": "05", "created_at": "2026-02-25T08:48:38.083Z" }, "geometry": { "type": "Point", "coordinates": [ 5.808978357322187, 44.530680588184346 ] } },
{ "type": "Feature", "properties": { "id": 293, "name": "Trescléoux", "code_commune": "05172", "code_departement": "05", "created_at": "2026-02-25T08:48:38.083Z" }, "geometry": { "type": "Point", "coordinates": [ 5.761643523214994, 44.344605478396787 ] } },
{ "type": "Feature", "properties": { "id": 294, "name": "La Motte-Chalancon", "code_commune": "26215", "code_departement": "26", "created_at": "2026-02-25T08:48:38.083Z" }, "geometry": { "type": "Point", "coordinates": [ 5.367299094206088, 44.467422733447869 ] } },
{ "type": "Feature", "properties": { "id": 295, "name": "Reilhanette", "code_commune": "26263", "code_departement": "26", "created_at": "2026-02-25T08:48:38.083Z" }, "geometry": { "type": "Point", "coordinates": [ 5.427685362828233, 44.164531492263876 ] } },
{ "type": "Feature", "properties": { "id": 296, "name": "Carpentras", "code_commune": "84031", "code_departement": "84", "created_at": "2026-02-25T08:48:38.083Z" }, "geometry": { "type": "Point", "coordinates": [ 5.047862051794445, 44.062415468073176 ] } },
{ "type": "Feature", "properties": { "id": 297, "name": "Monteux", "code_commune": "84080", "code_departement": "84", "created_at": "2026-02-25T08:48:38.083Z" }, "geometry": { "type": "Point", "coordinates": [ 4.981319068034779, 44.063033373659877 ] } },
{ "type": "Feature", "properties": { "id": 298, "name": "Sainte-Cécile-les-Vignes", "code_commune": "84106", "code_departement": "84", "created_at": "2026-02-25T08:48:38.083Z" }, "geometry": { "type": "Point", "coordinates": [ 4.886060347913031, 44.217643349987696 ] } },
{ "type": "Feature", "properties": { "id": 299, "name": "Tulette", "code_commune": "26357", "code_departement": "26", "created_at": "2026-02-25T08:48:38.083Z" }, "geometry": { "type": "Point", "coordinates": [ 4.94134719676416, 44.28289862624186 ] } },
{ "type": "Feature", "properties": { "id": 300, "name": "Vaison-la-Romaine", "code_commune": "84137", "code_departement": "84", "created_at": "2026-02-25T08:48:38.083Z" }, "geometry": { "type": "Point", "coordinates": [ 5.087440781582849, 44.242736585655344 ] } },
{ "type": "Feature", "properties": { "id": 301, "name": "Nyons", "code_commune": "26220", "code_departement": "26", "created_at": "2026-02-25T08:48:38.083Z" }, "geometry": { "type": "Point", "coordinates": [ 5.116257469851471, 44.352253953877536 ] } },
{ "type": "Feature", "properties": { "id": 302, "name": "Dieulefit", "code_commune": "26114", "code_departement": "26", "created_at": "2026-02-25T08:48:38.083Z" }, "geometry": { "type": "Point", "coordinates": [ 5.055038784485231, 44.520892167819724 ] } },
{ "type": "Feature", "properties": { "id": 303, "name": "Valréas", "code_commune": "84138", "code_departement": "84", "created_at": "2026-02-25T08:48:38.083Z" }, "geometry": { "type": "Point", "coordinates": [ 4.976964252020176, 44.393142959366017 ] } },
{ "type": "Feature", "properties": { "id": 304, "name": "Pierrelatte", "code_commune": "26235", "code_departement": "26", "created_at": "2026-02-25T08:48:38.083Z" }, "geometry": { "type": "Point", "coordinates": [ 4.70906567205916, 44.368385999659708 ] } },
{ "type": "Feature", "properties": { "id": 305, "name": "Montjoyer", "code_commune": "26203", "code_departement": "26", "created_at": "2026-02-25T08:48:38.083Z" }, "geometry": { "type": "Point", "coordinates": [ 4.863292919998646, 44.47581990240954 ] } },
{ "type": "Feature", "properties": { "id": 306, "name": "La Bâtie-Rolland", "code_commune": "26031", "code_departement": "26", "created_at": "2026-02-25T08:48:38.083Z" }, "geometry": { "type": "Point", "coordinates": [ 4.876164191119789, 44.551038968073591 ] } },
{ "type": "Feature", "properties": { "id": 307, "name": "Montélimar", "code_commune": "26198", "code_departement": "26", "created_at": "2026-02-25T08:48:38.083Z" }, "geometry": { "type": "Point", "coordinates": [ 4.740129998579161, 44.561358734812842 ] } },
{ "type": "Feature", "properties": { "id": 308, "name": "Le Teil", "code_commune": "07319", "code_departement": "07", "created_at": "2026-02-25T08:48:38.083Z" }, "geometry": { "type": "Point", "coordinates": [ 4.691902748567606, 44.539783221342631 ] } },
{ "type": "Feature", "properties": { "id": 309, "name": "Châteauneuf-du-Rhône", "code_commune": "26085", "code_departement": "26", "created_at": "2026-02-25T08:48:38.083Z" }, "geometry": { "type": "Point", "coordinates": [ 4.710185387094969, 44.494745020048363 ] } },
{ "type": "Feature", "properties": { "id": 310, "name": "Vénéjan", "code_commune": "30342", "code_departement": "30", "created_at": "2026-02-25T08:48:38.083Z" }, "geometry": { "type": "Point", "coordinates": [ 4.647797908326523, 44.199997806425031 ] } },
{ "type": "Feature", "properties": { "id": 311, "name": "Bollène", "code_commune": "84019", "code_departement": "84", "created_at": "2026-02-25T08:48:38.083Z" }, "geometry": { "type": "Point", "coordinates": [ 4.737197049330407, 44.282829189393155 ] } },
{ "type": "Feature", "properties": { "id": 312, "name": "Piolenc", "code_commune": "84091", "code_departement": "84", "created_at": "2026-02-25T08:48:38.083Z" }, "geometry": { "type": "Point", "coordinates": [ 4.788074889333584, 44.172456756443367 ] } },
{ "type": "Feature", "properties": { "id": 313, "name": "Orange", "code_commune": "84087", "code_departement": "84", "created_at": "2026-02-25T08:48:38.083Z" }, "geometry": { "type": "Point", "coordinates": [ 4.839131414489655, 44.128866752436998 ] } },
{ "type": "Feature", "properties": { "id": 314, "name": "Laudun-l'Ardoise", "code_commune": "30141", "code_departement": "30", "created_at": "2026-02-25T08:48:38.083Z" }, "geometry": { "type": "Point", "coordinates": [ 4.703075038370418, 44.086273562972131 ] } },
{ "type": "Feature", "properties": { "id": 315, "name": "Sabran", "code_commune": "30225", "code_departement": "30", "created_at": "2026-02-25T08:48:38.083Z" }, "geometry": { "type": "Point", "coordinates": [ 4.541637876003868, 44.158870079699632 ] } },
{ "type": "Feature", "properties": { "id": 316, "name": "Jonquières-Saint-Vincent", "code_commune": "30135", "code_departement": "30", "created_at": "2026-02-25T08:48:38.083Z" }, "geometry": { "type": "Point", "coordinates": [ 4.582447800211267, 43.829743513124157 ] } },
{ "type": "Feature", "properties": { "id": 317, "name": "Théziers", "code_commune": "30328", "code_departement": "30", "created_at": "2026-02-25T08:48:38.083Z" }, "geometry": { "type": "Point", "coordinates": [ 4.625316566985427, 43.895553159779134 ] } },
{ "type": "Feature", "properties": { "id": 318, "name": "Tarascon", "code_commune": "13108", "code_departement": "13", "created_at": "2026-02-25T08:48:38.083Z" }, "geometry": { "type": "Point", "coordinates": [ 4.692855116493432, 43.824151014332386 ] } },
{ "type": "Feature", "properties": { "id": 319, "name": "Saint-Rémy-de-Provence", "code_commune": "13100", "code_departement": "13", "created_at": "2026-02-25T08:48:38.083Z" }, "geometry": { "type": "Point", "coordinates": [ 4.820118419521788, 43.795442504163205 ] } },
{ "type": "Feature", "properties": { "id": 320, "name": "Châteaurenard", "code_commune": "13027", "code_departement": "13", "created_at": "2026-02-25T08:48:38.083Z" }, "geometry": { "type": "Point", "coordinates": [ 4.856505786772506, 43.864544348294025 ] } },
{ "type": "Feature", "properties": { "id": 321, "name": "Avignon", "code_commune": "84007", "code_departement": "84", "created_at": "2026-02-25T08:48:38.083Z" }, "geometry": { "type": "Point", "coordinates": [ 4.855116289238524, 43.948549395620084 ] } },
{ "type": "Feature", "properties": { "id": 322, "name": "Avignon", "code_commune": "84007", "code_departement": "84", "created_at": "2026-02-25T08:48:38.083Z" }, "geometry": { "type": "Point", "coordinates": [ 4.824043061687295, 43.952131772355095 ] } },
{ "type": "Feature", "properties": { "id": 323, "name": "Les Angles", "code_commune": "30011", "code_departement": "30", "created_at": "2026-02-25T08:48:38.084Z" }, "geometry": { "type": "Point", "coordinates": [ 4.781373308789948, 43.944185406503259 ] } },
{ "type": "Feature", "properties": { "id": 324, "name": "Avignon", "code_commune": "84007", "code_departement": "84", "created_at": "2026-02-25T08:48:38.084Z" }, "geometry": { "type": "Point", "coordinates": [ 4.794213656563076, 43.927069620998545 ] } },
{ "type": "Feature", "properties": { "id": 325, "name": "Le Pontet", "code_commune": "84092", "code_departement": "84", "created_at": "2026-02-25T08:48:38.084Z" }, "geometry": { "type": "Point", "coordinates": [ 4.865726918702236, 43.985280856243541 ] } },
{ "type": "Feature", "properties": { "id": 326, "name": "Sorgues", "code_commune": "84129", "code_departement": "84", "created_at": "2026-02-25T08:48:38.084Z" }, "geometry": { "type": "Point", "coordinates": [ 4.885192457432041, 44.012844590862102 ] } },
{ "type": "Feature", "properties": { "id": 327, "name": "Vedène", "code_commune": "84141", "code_departement": "84", "created_at": "2026-02-25T08:48:38.084Z" }, "geometry": { "type": "Point", "coordinates": [ 4.898825826835149, 43.959767877576454 ] } },
{ "type": "Feature", "properties": { "id": 328, "name": "Le Thor", "code_commune": "84132", "code_departement": "84", "created_at": "2026-02-25T08:48:38.084Z" }, "geometry": { "type": "Point", "coordinates": [ 5.023759512799029, 43.921163912634938 ] } },
{ "type": "Feature", "properties": { "id": 329, "name": "Carpentras", "code_commune": "84031", "code_departement": "84", "created_at": "2026-02-25T08:48:38.084Z" }, "geometry": { "type": "Point", "coordinates": [ 5.045553765197051, 44.035092803245348 ] } },
{ "type": "Feature", "properties": { "id": 330, "name": "Beaumettes", "code_commune": "84013", "code_departement": "84", "created_at": "2026-02-25T08:48:38.084Z" }, "geometry": { "type": "Point", "coordinates": [ 5.198477679744662, 43.85726230341254 ] } },
{ "type": "Feature", "properties": { "id": 331, "name": "Plan-d'Orgon", "code_commune": "13076", "code_departement": "13", "created_at": "2026-02-25T08:48:38.084Z" }, "geometry": { "type": "Point", "coordinates": [ 5.018727649842128, 43.826131929649769 ] } },
{ "type": "Feature", "properties": { "id": 332, "name": "Cavaillon", "code_commune": "84035", "code_departement": "84", "created_at": "2026-02-25T08:48:38.084Z" }, "geometry": { "type": "Point", "coordinates": [ 5.036091855152633, 43.850788967849532 ] } },
{ "type": "Feature", "properties": { "id": 333, "name": "Mallemort", "code_commune": "13053", "code_departement": "13", "created_at": "2026-02-25T08:48:38.084Z" }, "geometry": { "type": "Point", "coordinates": [ 5.186287457390162, 43.730221201357715 ] } },
{ "type": "Feature", "properties": { "id": 334, "name": "Lambesc", "code_commune": "13050", "code_departement": "13", "created_at": "2026-02-25T08:48:38.084Z" }, "geometry": { "type": "Point", "coordinates": [ 5.253463217235754, 43.648219181267528 ] } },
{ "type": "Feature", "properties": { "id": 335, "name": "Salon-de-Provence", "code_commune": "13103", "code_departement": "13", "created_at": "2026-02-25T08:48:38.084Z" }, "geometry": { "type": "Point", "coordinates": [ 5.112262657275256, 43.639379954272272 ] } },
{ "type": "Feature", "properties": { "id": 336, "name": "Salon-de-Provence", "code_commune": "13103", "code_departement": "13", "created_at": "2026-02-25T08:48:38.084Z" }, "geometry": { "type": "Point", "coordinates": [ 5.046783567011888, 43.638806895190555 ] } },
{ "type": "Feature", "properties": { "id": 337, "name": "Miramas", "code_commune": "13063", "code_departement": "13", "created_at": "2026-02-25T08:48:38.084Z" }, "geometry": { "type": "Point", "coordinates": [ 5.013641793703863, 43.579070475832111 ] } },
{ "type": "Feature", "properties": { "id": 338, "name": "Saint-Martin-de-Crau", "code_commune": "13097", "code_departement": "13", "created_at": "2026-02-25T08:48:38.084Z" }, "geometry": { "type": "Point", "coordinates": [ 4.805875430365138, 43.62498984353968 ] } },
{ "type": "Feature", "properties": { "id": 339, "name": "Arles", "code_commune": "13004", "code_departement": "13", "created_at": "2026-02-25T08:48:38.084Z" }, "geometry": { "type": "Point", "coordinates": [ 4.648641229057459, 43.662208441173973 ] } },
{ "type": "Feature", "properties": { "id": 340, "name": "Arles", "code_commune": "13004", "code_departement": "13", "created_at": "2026-02-25T08:48:38.084Z" }, "geometry": { "type": "Point", "coordinates": [ 4.602176567143584, 43.675896861798947 ] } },
{ "type": "Feature", "properties": { "id": 341, "name": "Fos-sur-Mer", "code_commune": "13039", "code_departement": "13", "created_at": "2026-02-25T08:48:38.084Z" }, "geometry": { "type": "Point", "coordinates": [ 4.848948649576316, 43.428305772485629 ] } },
{ "type": "Feature", "properties": { "id": 342, "name": "Port-Saint-Louis-du-Rhône", "code_commune": "13078", "code_departement": "13", "created_at": "2026-02-25T08:48:38.084Z" }, "geometry": { "type": "Point", "coordinates": [ 4.814502007931805, 43.393320888715827 ] } },
{ "type": "Feature", "properties": { "id": 343, "name": "Arles", "code_commune": "13004", "code_departement": "13", "created_at": "2026-02-25T08:48:38.084Z" }, "geometry": { "type": "Point", "coordinates": [ 4.730985236844649, 43.416789102842863 ] } },
{ "type": "Feature", "properties": { "id": 344, "name": "Martigues", "code_commune": "13056", "code_departement": "13", "created_at": "2026-02-25T08:48:38.084Z" }, "geometry": { "type": "Point", "coordinates": [ 5.047408996659335, 43.409673137234719 ] } },
{ "type": "Feature", "properties": { "id": 345, "name": "Port-de-Bouc", "code_commune": "13077", "code_departement": "13", "created_at": "2026-02-25T08:48:38.084Z" }, "geometry": { "type": "Point", "coordinates": [ 4.99082365507972, 43.415054819626789 ] } },
{ "type": "Feature", "properties": { "id": 346, "name": "Martigues", "code_commune": "13056", "code_departement": "13", "created_at": "2026-02-25T08:48:38.084Z" }, "geometry": { "type": "Point", "coordinates": [ 5.02439889546519, 43.384105691139347 ] } },
{ "type": "Feature", "properties": { "id": 347, "name": "Fos-sur-Mer", "code_commune": "13039", "code_departement": "13", "created_at": "2026-02-25T08:48:38.084Z" }, "geometry": { "type": "Point", "coordinates": [ 4.903992927278524, 43.455936131399 ] } },
{ "type": "Feature", "properties": { "id": 348, "name": "Istres", "code_commune": "13047", "code_departement": "13", "created_at": "2026-02-25T08:48:38.084Z" }, "geometry": { "type": "Point", "coordinates": [ 4.967462568235733, 43.49374185403056 ] } },
{ "type": "Feature", "properties": { "id": 349, "name": "Châteauneuf-les-Martigues", "code_commune": "13026", "code_departement": "13", "created_at": "2026-02-25T08:48:38.084Z" }, "geometry": { "type": "Point", "coordinates": [ 5.120068198362173, 43.394125685915284 ] } },
{ "type": "Feature", "properties": { "id": 350, "name": "Gignac-la-Nerthe", "code_commune": "13043", "code_departement": "13", "created_at": "2026-02-25T08:48:38.084Z" }, "geometry": { "type": "Point", "coordinates": [ 5.199025835255703, 43.376749537925384 ] } },
{ "type": "Feature", "properties": { "id": 351, "name": "Saint-Victoret", "code_commune": "13102", "code_departement": "13", "created_at": "2026-02-25T08:48:38.084Z" }, "geometry": { "type": "Point", "coordinates": [ 5.252981125435365, 43.412269021194163 ] } },
{ "type": "Feature", "properties": { "id": 352, "name": "Vitrolles", "code_commune": "13117", "code_departement": "13", "created_at": "2026-02-25T08:48:38.084Z" }, "geometry": { "type": "Point", "coordinates": [ 5.243391792537771, 43.44406279058208 ] } },
{ "type": "Feature", "properties": { "id": 353, "name": "Rognac", "code_commune": "13081", "code_departement": "13", "created_at": "2026-02-25T08:48:38.084Z" }, "geometry": { "type": "Point", "coordinates": [ 5.20393971603019, 43.497352972718339 ] } },
{ "type": "Feature", "properties": { "id": 354, "name": "Aix-en-Provence", "code_commune": "13001", "code_departement": "13", "created_at": "2026-02-25T08:48:38.084Z" }, "geometry": { "type": "Point", "coordinates": [ 5.355744473525239, 43.48534630809074 ] } },
{ "type": "Feature", "properties": { "id": 355, "name": "Gardanne", "code_commune": "13041", "code_departement": "13", "created_at": "2026-02-25T08:48:38.084Z" }, "geometry": { "type": "Point", "coordinates": [ 5.468373100877314, 43.463765091253961 ] } },
{ "type": "Feature", "properties": { "id": 356, "name": "Bouc-Bel-Air", "code_commune": "13015", "code_departement": "13", "created_at": "2026-02-25T08:48:38.084Z" }, "geometry": { "type": "Point", "coordinates": [ 5.391065148930769, 43.423641051200974 ] } },
{ "type": "Feature", "properties": { "id": 357, "name": "Les Pennes-Mirabeau", "code_commune": "13071", "code_departement": "13", "created_at": "2026-02-25T08:48:38.084Z" }, "geometry": { "type": "Point", "coordinates": [ 5.349789694127093, 43.38188540378372 ] } },
{ "type": "Feature", "properties": { "id": 358, "name": "Septèmes-les-Vallons", "code_commune": "13106", "code_departement": "13", "created_at": "2026-02-25T08:48:38.084Z" }, "geometry": { "type": "Point", "coordinates": [ 5.353681896890559, 43.396679453764392 ] } },
{ "type": "Feature", "properties": { "id": 359, "name": "Les Pennes-Mirabeau", "code_commune": "13071", "code_departement": "13", "created_at": "2026-02-25T08:48:38.085Z" }, "geometry": { "type": "Point", "coordinates": [ 5.354554819014709, 43.375049333426603 ] } },
{ "type": "Feature", "properties": { "id": 360, "name": "Marseille", "code_commune": "13055", "code_departement": "13", "created_at": "2026-02-25T08:48:38.085Z" }, "geometry": { "type": "Point", "coordinates": [ 5.339591425273814, 43.355252687863455 ] } },
{ "type": "Feature", "properties": { "id": 361, "name": "Marseille", "code_commune": "13055", "code_departement": "13", "created_at": "2026-02-25T08:48:38.085Z" }, "geometry": { "type": "Point", "coordinates": [ 5.366777733589153, 43.321838188884385 ] } },
{ "type": "Feature", "properties": { "id": 362, "name": "Marseille", "code_commune": "13055", "code_departement": "13", "created_at": "2026-02-25T08:48:38.085Z" }, "geometry": { "type": "Point", "coordinates": [ 5.379006934285021, 43.289667625124352 ] } },
{ "type": "Feature", "properties": { "id": 363, "name": "Marseille", "code_commune": "13055", "code_departement": "13", "created_at": "2026-02-25T08:48:38.085Z" }, "geometry": { "type": "Point", "coordinates": [ 5.369344740595971, 43.289781810166595 ] } },
{ "type": "Feature", "properties": { "id": 364, "name": "Marseille", "code_commune": "13055", "code_departement": "13", "created_at": "2026-02-25T08:48:38.085Z" }, "geometry": { "type": "Point", "coordinates": [ 5.39744545595942, 43.292793904023867 ] } },
{ "type": "Feature", "properties": { "id": 365, "name": "Marseille", "code_commune": "13055", "code_departement": "13", "created_at": "2026-02-25T08:48:38.085Z" }, "geometry": { "type": "Point", "coordinates": [ 5.397458601519282, 43.277505004130489 ] } },
{ "type": "Feature", "properties": { "id": 366, "name": "Marseille", "code_commune": "13055", "code_departement": "13", "created_at": "2026-02-25T08:48:38.085Z" }, "geometry": { "type": "Point", "coordinates": [ 5.37952765292675, 43.243232808809516 ] } },
{ "type": "Feature", "properties": { "id": 367, "name": "Marseille", "code_commune": "13055", "code_departement": "13", "created_at": "2026-02-25T08:48:38.085Z" }, "geometry": { "type": "Point", "coordinates": [ 5.40426474977021, 43.25380934418655 ] } },
{ "type": "Feature", "properties": { "id": 368, "name": "Marseille", "code_commune": "13055", "code_departement": "13", "created_at": "2026-02-25T08:48:38.085Z" }, "geometry": { "type": "Point", "coordinates": [ 5.459421397280115, 43.293188007815459 ] } },
{ "type": "Feature", "properties": { "id": 369, "name": "Marseille", "code_commune": "13055", "code_departement": "13", "created_at": "2026-02-25T08:48:38.085Z" }, "geometry": { "type": "Point", "coordinates": [ 5.431446124343871, 43.337481718426922 ] } },
{ "type": "Feature", "properties": { "id": 370, "name": "Marseille", "code_commune": "13055", "code_departement": "13", "created_at": "2026-02-25T08:48:38.085Z" }, "geometry": { "type": "Point", "coordinates": [ 5.38828026987117, 43.310404354755235 ] } },
{ "type": "Feature", "properties": { "id": 371, "name": "Allauch", "code_commune": "13002", "code_departement": "13", "created_at": "2026-02-25T08:48:38.085Z" }, "geometry": { "type": "Point", "coordinates": [ 5.480970450587269, 43.320354125901169 ] } },
{ "type": "Feature", "properties": { "id": 372, "name": "Aubagne", "code_commune": "13005", "code_departement": "13", "created_at": "2026-02-25T08:48:38.085Z" }, "geometry": { "type": "Point", "coordinates": [ 5.530012447466345, 43.284904197780349 ] } },
{ "type": "Feature", "properties": { "id": 373, "name": "Aubagne", "code_commune": "13005", "code_departement": "13", "created_at": "2026-02-25T08:48:38.085Z" }, "geometry": { "type": "Point", "coordinates": [ 5.591695679723566, 43.285455256262438 ] } },
{ "type": "Feature", "properties": { "id": 374, "name": "Roquefort-la-Bédoule", "code_commune": "13085", "code_departement": "13", "created_at": "2026-02-25T08:48:38.085Z" }, "geometry": { "type": "Point", "coordinates": [ 5.580326712668106, 43.251407027744321 ] } },
{ "type": "Feature", "properties": { "id": 375, "name": "Auriol", "code_commune": "13007", "code_departement": "13", "created_at": "2026-02-25T08:48:38.085Z" }, "geometry": { "type": "Point", "coordinates": [ 5.617561069519416, 43.364076243362469 ] } },
{ "type": "Feature", "properties": { "id": 376, "name": "Saint-Savournin", "code_commune": "13101", "code_departement": "13", "created_at": "2026-02-25T08:48:38.085Z" }, "geometry": { "type": "Point", "coordinates": [ 5.547922553415405, 43.415380996827778 ] } },
{ "type": "Feature", "properties": { "id": 377, "name": "Rousset", "code_commune": "13087", "code_departement": "13", "created_at": "2026-02-25T08:48:38.085Z" }, "geometry": { "type": "Point", "coordinates": [ 5.602547997782964, 43.478356215458064 ] } },
{ "type": "Feature", "properties": { "id": 378, "name": "Rousset", "code_commune": "13087", "code_departement": "13", "created_at": "2026-02-25T08:48:38.085Z" }, "geometry": { "type": "Point", "coordinates": [ 5.615917309566608, 43.470981507683469 ] } },
{ "type": "Feature", "properties": { "id": 379, "name": "Saint-Maximin-la-Sainte-Baume", "code_commune": "83116", "code_departement": "83", "created_at": "2026-02-25T08:48:38.085Z" }, "geometry": { "type": "Point", "coordinates": [ 5.866850883669439, 43.466142372748784 ] } },
{ "type": "Feature", "properties": { "id": 380, "name": "Le Val", "code_commune": "83143", "code_departement": "83", "created_at": "2026-02-25T08:48:38.085Z" }, "geometry": { "type": "Point", "coordinates": [ 6.072139674371107, 43.435490595758878 ] } },
{ "type": "Feature", "properties": { "id": 381, "name": "La Celle", "code_commune": "83037", "code_departement": "83", "created_at": "2026-02-25T08:48:38.085Z" }, "geometry": { "type": "Point", "coordinates": [ 5.978491305895598, 43.384320268214367 ] } },
{ "type": "Feature", "properties": { "id": 382, "name": "Rocbaron", "code_commune": "83106", "code_departement": "83", "created_at": "2026-02-25T08:48:38.085Z" }, "geometry": { "type": "Point", "coordinates": [ 6.072087583802008, 43.301613484904038 ] } },
{ "type": "Feature", "properties": { "id": 383, "name": "Signes", "code_commune": "83127", "code_departement": "83", "created_at": "2026-02-25T08:48:38.085Z" }, "geometry": { "type": "Point", "coordinates": [ 5.806716829925193, 43.254370307081409 ] } },
{ "type": "Feature", "properties": { "id": 384, "name": "Saint-Cyr-sur-Mer", "code_commune": "83112", "code_departement": "83", "created_at": "2026-02-25T08:48:38.085Z" }, "geometry": { "type": "Point", "coordinates": [ 5.709774028483026, 43.197011230291857 ] } },
{ "type": "Feature", "properties": { "id": 385, "name": "Bandol", "code_commune": "83009", "code_departement": "83", "created_at": "2026-02-25T08:48:38.085Z" }, "geometry": { "type": "Point", "coordinates": [ 5.766342115156976, 43.145761188245267 ] } },
{ "type": "Feature", "properties": { "id": 386, "name": "Six-Fours-les-Plages", "code_commune": "83129", "code_departement": "83", "created_at": "2026-02-25T08:48:38.085Z" }, "geometry": { "type": "Point", "coordinates": [ 5.845705357841921, 43.113536590329147 ] } },
{ "type": "Feature", "properties": { "id": 387, "name": "Solliès-Toucas", "code_commune": "83131", "code_departement": "83", "created_at": "2026-02-25T08:48:38.085Z" }, "geometry": { "type": "Point", "coordinates": [ 6.028268031057017, 43.200391793998293 ] } },
{ "type": "Feature", "properties": { "id": 388, "name": "La Garde", "code_commune": "83062", "code_departement": "83", "created_at": "2026-02-25T08:48:38.085Z" }, "geometry": { "type": "Point", "coordinates": [ 6.020140276062744, 43.140614566585079 ] } },
{ "type": "Feature", "properties": { "id": 389, "name": "Toulon", "code_commune": "83137", "code_departement": "83", "created_at": "2026-02-25T08:48:38.085Z" }, "geometry": { "type": "Point", "coordinates": [ 5.939816287155772, 43.114558348309217 ] } },
{ "type": "Feature", "properties": { "id": 390, "name": "Toulon", "code_commune": "83137", "code_departement": "83", "created_at": "2026-02-25T08:48:38.085Z" }, "geometry": { "type": "Point", "coordinates": [ 5.936586044841198, 43.126779760160353 ] } },
{ "type": "Feature", "properties": { "id": 391, "name": "Toulon", "code_commune": "83137", "code_departement": "83", "created_at": "2026-02-25T08:48:38.085Z" }, "geometry": { "type": "Point", "coordinates": [ 5.964196383975114, 43.131414922254031 ] } },
{ "type": "Feature", "properties": { "id": 392, "name": "Toulon", "code_commune": "83137", "code_departement": "83", "created_at": "2026-02-25T08:48:38.085Z" }, "geometry": { "type": "Point", "coordinates": [ 5.892584031377892, 43.132126650319506 ] } },
{ "type": "Feature", "properties": { "id": 393, "name": "La Seyne-sur-Mer", "code_commune": "83126", "code_departement": "83", "created_at": "2026-02-25T08:48:38.085Z" }, "geometry": { "type": "Point", "coordinates": [ 5.886767830568556, 43.0995795810014 ] } },
{ "type": "Feature", "properties": { "id": 394, "name": "La Seyne-sur-Mer", "code_commune": "83126", "code_departement": "83", "created_at": "2026-02-25T08:48:38.085Z" }, "geometry": { "type": "Point", "coordinates": [ 5.856338453001123, 43.086924229591503 ] } },
{ "type": "Feature", "properties": { "id": 395, "name": "La Ciotat", "code_commune": "13028", "code_departement": "13", "created_at": "2026-02-25T08:48:38.085Z" }, "geometry": { "type": "Point", "coordinates": [ 5.594282251882741, 43.21243123955464 ] } },
{ "type": "Feature", "properties": { "id": 396, "name": "La Ciotat", "code_commune": "13028", "code_departement": "13", "created_at": "2026-02-25T08:48:38.086Z" }, "geometry": { "type": "Point", "coordinates": [ 5.599638447224395, 43.185729026079564 ] } },
{ "type": "Feature", "properties": { "id": 397, "name": "Balaruc-les-Bains", "code_commune": "34023", "code_departement": "34", "created_at": "2026-02-25T08:48:38.086Z" }, "geometry": { "type": "Point", "coordinates": [ 3.707439250971464, 43.445762977385215 ] } },
{ "type": "Feature", "properties": { "id": 398, "name": "Sète", "code_commune": "34301", "code_departement": "34", "created_at": "2026-02-25T08:48:38.086Z" }, "geometry": { "type": "Point", "coordinates": [ 3.694855162190752, 43.413312538301625 ] } },
{ "type": "Feature", "properties": { "id": 399, "name": "Agde", "code_commune": "34003", "code_departement": "34", "created_at": "2026-02-25T08:48:38.086Z" }, "geometry": { "type": "Point", "coordinates": [ 3.506402424986617, 43.308299385938568 ] } },
{ "type": "Feature", "properties": { "id": 400, "name": "Loupian", "code_commune": "34143", "code_departement": "34", "created_at": "2026-02-25T08:48:38.086Z" }, "geometry": { "type": "Point", "coordinates": [ 3.606732535724494, 43.465050510280079 ] } },
{ "type": "Feature", "properties": { "id": 401, "name": "Florensac", "code_commune": "34101", "code_departement": "34", "created_at": "2026-02-25T08:48:38.086Z" }, "geometry": { "type": "Point", "coordinates": [ 3.480889013329391, 43.386594447265573 ] } },
{ "type": "Feature", "properties": { "id": 402, "name": "Pézenas", "code_commune": "34199", "code_departement": "34", "created_at": "2026-02-25T08:48:38.086Z" }, "geometry": { "type": "Point", "coordinates": [ 3.410836717210476, 43.448353216967597 ] } },
{ "type": "Feature", "properties": { "id": 403, "name": "Vias", "code_commune": "34332", "code_departement": "34", "created_at": "2026-02-25T08:48:38.086Z" }, "geometry": { "type": "Point", "coordinates": [ 3.427603575754547, 43.316671049361943 ] } },
{ "type": "Feature", "properties": { "id": 404, "name": "Nissan-lez-Enserune", "code_commune": "34183", "code_departement": "34", "created_at": "2026-02-25T08:48:38.086Z" }, "geometry": { "type": "Point", "coordinates": [ 3.127762660162838, 43.294121527785087 ] } },
{ "type": "Feature", "properties": { "id": 405, "name": "Béziers", "code_commune": "34032", "code_departement": "34", "created_at": "2026-02-25T08:48:38.086Z" }, "geometry": { "type": "Point", "coordinates": [ 3.218217222326554, 43.367991581233589 ] } },
{ "type": "Feature", "properties": { "id": 406, "name": "Béziers", "code_commune": "34032", "code_departement": "34", "created_at": "2026-02-25T08:48:38.086Z" }, "geometry": { "type": "Point", "coordinates": [ 3.230015284139735, 43.329882149593239 ] } },
{ "type": "Feature", "properties": { "id": 407, "name": "Béziers", "code_commune": "34032", "code_departement": "34", "created_at": "2026-02-25T08:48:38.086Z" }, "geometry": { "type": "Point", "coordinates": [ 3.259579474762962, 43.351617130321884 ] } },
{ "type": "Feature", "properties": { "id": 408, "name": "Espondeilhan", "code_commune": "34094", "code_departement": "34", "created_at": "2026-02-25T08:48:38.086Z" }, "geometry": { "type": "Point", "coordinates": [ 3.251399761279803, 43.442866499350217 ] } },
{ "type": "Feature", "properties": { "id": 409, "name": "Cazedarnes", "code_commune": "34065", "code_departement": "34", "created_at": "2026-02-25T08:48:38.086Z" }, "geometry": { "type": "Point", "coordinates": [ 3.043624641495266, 43.419608204406281 ] } },
{ "type": "Feature", "properties": { "id": 410, "name": "Sallèles-d'Aude", "code_commune": "11369", "code_departement": "11", "created_at": "2026-02-25T08:48:38.086Z" }, "geometry": { "type": "Point", "coordinates": [ 2.914446565672467, 43.28563164765292 ] } },
{ "type": "Feature", "properties": { "id": 411, "name": "Narbonne", "code_commune": "11262", "code_departement": "11", "created_at": "2026-02-25T08:48:38.086Z" }, "geometry": { "type": "Point", "coordinates": [ 2.982579630960762, 43.197026084946266 ] } },
{ "type": "Feature", "properties": { "id": 412, "name": "Narbonne", "code_commune": "11262", "code_departement": "11", "created_at": "2026-02-25T08:48:38.086Z" }, "geometry": { "type": "Point", "coordinates": [ 3.003361219069411, 43.169393835810183 ] } },
{ "type": "Feature", "properties": { "id": 413, "name": "Port-la-Nouvelle", "code_commune": "11266", "code_departement": "11", "created_at": "2026-02-25T08:48:38.086Z" }, "geometry": { "type": "Point", "coordinates": [ 3.033914213099298, 43.013380950638485 ] } },
{ "type": "Feature", "properties": { "id": 414, "name": "Fitou", "code_commune": "11144", "code_departement": "11", "created_at": "2026-02-25T08:48:38.086Z" }, "geometry": { "type": "Point", "coordinates": [ 2.998637608817402, 42.896486554023113 ] } },
{ "type": "Feature", "properties": { "id": 415, "name": "Rivesaltes", "code_commune": "66164", "code_departement": "66", "created_at": "2026-02-25T08:48:38.086Z" }, "geometry": { "type": "Point", "coordinates": [ 2.891272159662832, 42.801010755849653 ] } },
{ "type": "Feature", "properties": { "id": 416, "name": "Perpignan", "code_commune": "66136", "code_departement": "66", "created_at": "2026-02-25T08:48:38.086Z" }, "geometry": { "type": "Point", "coordinates": [ 2.897049663844809, 42.734739026453703 ] } },
{ "type": "Feature", "properties": { "id": 417, "name": "Canet-en-Roussillon", "code_commune": "66037", "code_departement": "66", "created_at": "2026-02-25T08:48:38.086Z" }, "geometry": { "type": "Point", "coordinates": [ 2.985668820430705, 42.707881013048059 ] } },
{ "type": "Feature", "properties": { "id": 418, "name": "Saint-Laurent-de-la-Salanque", "code_commune": "66180", "code_departement": "66", "created_at": "2026-02-25T08:48:38.086Z" }, "geometry": { "type": "Point", "coordinates": [ 3.003174062669327, 42.788009795338496 ] } },
{ "type": "Feature", "properties": { "id": 419, "name": "Cerbère", "code_commune": "66048", "code_departement": "66", "created_at": "2026-02-25T08:48:38.086Z" }, "geometry": { "type": "Point", "coordinates": [ 3.156002648020094, 42.458129898968124 ] } },
{ "type": "Feature", "properties": { "id": 420, "name": "Saint-Cyprien", "code_commune": "66171", "code_departement": "66", "created_at": "2026-02-25T08:48:38.086Z" }, "geometry": { "type": "Point", "coordinates": [ 2.999707348690367, 42.633585826371245 ] } },
{ "type": "Feature", "properties": { "id": 421, "name": "Cabestany", "code_commune": "66028", "code_departement": "66", "created_at": "2026-02-25T08:48:38.086Z" }, "geometry": { "type": "Point", "coordinates": [ 2.922687356344646, 42.686115738741222 ] } },
{ "type": "Feature", "properties": { "id": 422, "name": "Argelès-sur-Mer", "code_commune": "66008", "code_departement": "66", "created_at": "2026-02-25T08:48:38.086Z" }, "geometry": { "type": "Point", "coordinates": [ 3.007280208179911, 42.5497200563264 ] } },
{ "type": "Feature", "properties": { "id": 423, "name": "Banyuls-dels-Aspres", "code_commune": "66015", "code_departement": "66", "created_at": "2026-02-25T08:48:38.086Z" }, "geometry": { "type": "Point", "coordinates": [ 2.859586070941186, 42.550317055189574 ] } },
{ "type": "Feature", "properties": { "id": 424, "name": "Céret", "code_commune": "66049", "code_departement": "66", "created_at": "2026-02-25T08:48:38.086Z" }, "geometry": { "type": "Point", "coordinates": [ 2.727401803122718, 42.494828368895305 ] } },
{ "type": "Feature", "properties": { "id": 425, "name": "Arles-sur-Tech", "code_commune": "66009", "code_departement": "66", "created_at": "2026-02-25T08:48:38.086Z" }, "geometry": { "type": "Point", "coordinates": [ 2.596008056217557, 42.43552219659319 ] } },
{ "type": "Feature", "properties": { "id": 426, "name": "Ille-sur-Têt", "code_commune": "66088", "code_departement": "66", "created_at": "2026-02-25T08:48:38.086Z" }, "geometry": { "type": "Point", "coordinates": [ 2.648110362316841, 42.656578081338246 ] } },
{ "type": "Feature", "properties": { "id": 427, "name": "Trouillas", "code_commune": "66217", "code_departement": "66", "created_at": "2026-02-25T08:48:38.086Z" }, "geometry": { "type": "Point", "coordinates": [ 2.823081787568827, 42.611833055115433 ] } },
{ "type": "Feature", "properties": { "id": 428, "name": "Perpignan", "code_commune": "66136", "code_departement": "66", "created_at": "2026-02-25T08:48:38.086Z" }, "geometry": { "type": "Point", "coordinates": [ 2.857322875726394, 42.695691596537735 ] } },
{ "type": "Feature", "properties": { "id": 429, "name": "Tautavel", "code_commune": "66205", "code_departement": "66", "created_at": "2026-02-25T08:48:38.086Z" }, "geometry": { "type": "Point", "coordinates": [ 2.695703819180915, 42.796231331969381 ] } },
{ "type": "Feature", "properties": { "id": 430, "name": "Saint-Paul-de-Fenouillet", "code_commune": "66187", "code_departement": "66", "created_at": "2026-02-25T08:48:38.086Z" }, "geometry": { "type": "Point", "coordinates": [ 2.510105141228024, 42.810400903197895 ] } },
{ "type": "Feature", "properties": { "id": 431, "name": "Espéraza", "code_commune": "11129", "code_departement": "11", "created_at": "2026-02-25T08:48:38.086Z" }, "geometry": { "type": "Point", "coordinates": [ 2.200650559525219, 42.935361947329397 ] } },
{ "type": "Feature", "properties": { "id": 432, "name": "Axat", "code_commune": "11021", "code_departement": "11", "created_at": "2026-02-25T08:48:38.087Z" }, "geometry": { "type": "Point", "coordinates": [ 2.222018918599125, 42.787991059887098 ] } },
{ "type": "Feature", "properties": { "id": 433, "name": "Formiguères", "code_commune": "66082", "code_departement": "66", "created_at": "2026-02-25T08:48:38.087Z" }, "geometry": { "type": "Point", "coordinates": [ 2.109870994765986, 42.605578679142248 ] } },
{ "type": "Feature", "properties": { "id": 434, "name": "Fuilla", "code_commune": "66085", "code_departement": "66", "created_at": "2026-02-25T08:48:38.087Z" }, "geometry": { "type": "Point", "coordinates": [ 2.360455518991835, 42.583253054676334 ] } },
{ "type": "Feature", "properties": { "id": 435, "name": "La Cabanasse", "code_commune": "66027", "code_departement": "66", "created_at": "2026-02-25T08:48:38.087Z" }, "geometry": { "type": "Point", "coordinates": [ 2.091831886676683, 42.495092668164787 ] } },
{ "type": "Feature", "properties": { "id": 436, "name": "Latour-de-Carol", "code_commune": "66095", "code_departement": "66", "created_at": "2026-02-25T08:48:38.087Z" }, "geometry": { "type": "Point", "coordinates": [ 1.901466019823693, 42.45894416101472 ] } },
{ "type": "Feature", "properties": { "id": 437, "name": "Capoulet-et-Junac", "code_commune": "09077", "code_departement": "09", "created_at": "2026-02-25T08:48:38.087Z" }, "geometry": { "type": "Point", "coordinates": [ 1.585883780858401, 42.797443048183119 ] } },
{ "type": "Feature", "properties": { "id": 438, "name": "Auzat", "code_commune": "09030", "code_departement": "09", "created_at": "2026-02-25T08:48:38.087Z" }, "geometry": { "type": "Point", "coordinates": [ 1.477442539333167, 42.76211347012476 ] } },
{ "type": "Feature", "properties": { "id": 439, "name": "Aulus-les-Bains", "code_commune": "09029", "code_departement": "09", "created_at": "2026-02-25T08:48:38.087Z" }, "geometry": { "type": "Point", "coordinates": [ 1.315351429411004, 42.795397998597302 ] } },
{ "type": "Feature", "properties": { "id": 440, "name": "Ercé", "code_commune": "09113", "code_departement": "09", "created_at": "2026-02-25T08:48:38.087Z" }, "geometry": { "type": "Point", "coordinates": [ 1.29468857213403, 42.840860988338349 ] } },
{ "type": "Feature", "properties": { "id": 441, "name": "Biert", "code_commune": "09057", "code_departement": "09", "created_at": "2026-02-25T08:48:38.087Z" }, "geometry": { "type": "Point", "coordinates": [ 1.325981135480182, 42.897450760295442 ] } },
{ "type": "Feature", "properties": { "id": 527, "name": "Buzet-sur-Tarn", "code_commune": "31094", "code_departement": "31", "created_at": "2026-02-25T08:48:38.089Z" }, "geometry": { "type": "Point", "coordinates": [ 1.646256538968425, 43.763362713496605 ] } },
{ "type": "Feature", "properties": { "id": 442, "name": "Tarascon-sur-Ariège", "code_commune": "09306", "code_departement": "09", "created_at": "2026-02-25T08:48:38.087Z" }, "geometry": { "type": "Point", "coordinates": [ 1.597634207620396, 42.851267448283032 ] } },
{ "type": "Feature", "properties": { "id": 443, "name": "Prayols", "code_commune": "09236", "code_departement": "09", "created_at": "2026-02-25T08:48:38.087Z" }, "geometry": { "type": "Point", "coordinates": [ 1.623177674571604, 42.927045837421339 ] } },
{ "type": "Feature", "properties": { "id": 444, "name": "Foix", "code_commune": "09122", "code_departement": "09", "created_at": "2026-02-25T08:48:38.087Z" }, "geometry": { "type": "Point", "coordinates": [ 1.611776309587466, 42.960759719552065 ] } },
{ "type": "Feature", "properties": { "id": 445, "name": "Laroque-d'Olmes", "code_commune": "09157", "code_departement": "09", "created_at": "2026-02-25T08:48:38.087Z" }, "geometry": { "type": "Point", "coordinates": [ 1.865366831288426, 42.959324828701135 ] } },
{ "type": "Feature", "properties": { "id": 446, "name": "Lavelanet", "code_commune": "09160", "code_departement": "09", "created_at": "2026-02-25T08:48:38.087Z" }, "geometry": { "type": "Point", "coordinates": [ 1.833839067921884, 42.922204208251905 ] } },
{ "type": "Feature", "properties": { "id": 447, "name": "Montferrier", "code_commune": "09206", "code_departement": "09", "created_at": "2026-02-25T08:48:38.087Z" }, "geometry": { "type": "Point", "coordinates": [ 1.808203627258848, 42.882788668950631 ] } },
{ "type": "Feature", "properties": { "id": 448, "name": "Sorgeat", "code_commune": "09298", "code_departement": "09", "created_at": "2026-02-25T08:48:38.087Z" }, "geometry": { "type": "Point", "coordinates": [ 1.848462660683349, 42.729599202262392 ] } },
{ "type": "Feature", "properties": { "id": 449, "name": "Ax-les-Thermes", "code_commune": "09032", "code_departement": "09", "created_at": "2026-02-25T08:48:38.087Z" }, "geometry": { "type": "Point", "coordinates": [ 1.841310687452894, 42.718836651828781 ] } },
{ "type": "Feature", "properties": { "id": 450, "name": "Rouze", "code_commune": "09252", "code_departement": "09", "created_at": "2026-02-25T08:48:38.087Z" }, "geometry": { "type": "Point", "coordinates": [ 2.08543626079132, 42.751457098560245 ] } },
{ "type": "Feature", "properties": { "id": 451, "name": "Bélesta", "code_commune": "09047", "code_departement": "09", "created_at": "2026-02-25T08:48:38.087Z" }, "geometry": { "type": "Point", "coordinates": [ 1.966258130195689, 42.910515646158998 ] } },
{ "type": "Feature", "properties": { "id": 452, "name": "Mirepoix", "code_commune": "09194", "code_departement": "09", "created_at": "2026-02-25T08:48:38.087Z" }, "geometry": { "type": "Point", "coordinates": [ 1.8606145498994, 43.089633369069489 ] } },
{ "type": "Feature", "properties": { "id": 453, "name": "Foix", "code_commune": "09122", "code_departement": "09", "created_at": "2026-02-25T08:48:38.087Z" }, "geometry": { "type": "Point", "coordinates": [ 1.617655177798592, 42.977730226515973 ] } },
{ "type": "Feature", "properties": { "id": 454, "name": "Saint-Jean-de-Verges", "code_commune": "09264", "code_departement": "09", "created_at": "2026-02-25T08:48:38.087Z" }, "geometry": { "type": "Point", "coordinates": [ 1.621071546364166, 43.023438774243573 ] } },
{ "type": "Feature", "properties": { "id": 455, "name": "Sabarat", "code_commune": "09253", "code_departement": "09", "created_at": "2026-02-25T08:48:38.087Z" }, "geometry": { "type": "Point", "coordinates": [ 1.399543888272123, 43.095089759887124 ] } },
{ "type": "Feature", "properties": { "id": 456, "name": "Sabarat", "code_commune": "09253", "code_departement": "09", "created_at": "2026-02-25T08:48:38.087Z" }, "geometry": { "type": "Point", "coordinates": [ 1.400131121928422, 43.094486729098101 ] } },
{ "type": "Feature", "properties": { "id": 457, "name": "Pailhès", "code_commune": "09224", "code_departement": "09", "created_at": "2026-02-25T08:48:38.087Z" }, "geometry": { "type": "Point", "coordinates": [ 1.42139735498395, 43.107379867898679 ] } },
{ "type": "Feature", "properties": { "id": 458, "name": "Daumazan-sur-Arize", "code_commune": "09105", "code_departement": "09", "created_at": "2026-02-25T08:48:38.087Z" }, "geometry": { "type": "Point", "coordinates": [ 1.320056389910038, 43.138225143803773 ] } },
{ "type": "Feature", "properties": { "id": 459, "name": "Bonnac", "code_commune": "09060", "code_departement": "09", "created_at": "2026-02-25T08:48:38.087Z" }, "geometry": { "type": "Point", "coordinates": [ 1.596424919192656, 43.164818710370689 ] } },
{ "type": "Feature", "properties": { "id": 460, "name": "Pamiers", "code_commune": "09225", "code_departement": "09", "created_at": "2026-02-25T08:48:38.087Z" }, "geometry": { "type": "Point", "coordinates": [ 1.640827710190154, 43.120114777188903 ] } },
{ "type": "Feature", "properties": { "id": 461, "name": "Cintegabelle", "code_commune": "31145", "code_departement": "31", "created_at": "2026-02-25T08:48:38.087Z" }, "geometry": { "type": "Point", "coordinates": [ 1.551741178186023, 43.294975837717544 ] } },
{ "type": "Feature", "properties": { "id": 462, "name": "Auterive", "code_commune": "31033", "code_departement": "31", "created_at": "2026-02-25T08:48:38.087Z" }, "geometry": { "type": "Point", "coordinates": [ 1.445813630634288, 43.347153821192151 ] } },
{ "type": "Feature", "properties": { "id": 463, "name": "Muret", "code_commune": "31395", "code_departement": "31", "created_at": "2026-02-25T08:48:38.087Z" }, "geometry": { "type": "Point", "coordinates": [ 1.341092726702176, 43.448015424284229 ] } },
{ "type": "Feature", "properties": { "id": 464, "name": "Ayguesvives", "code_commune": "31004", "code_departement": "31", "created_at": "2026-02-25T08:48:38.087Z" }, "geometry": { "type": "Point", "coordinates": [ 1.592361113775848, 43.433810851785495 ] } },
{ "type": "Feature", "properties": { "id": 465, "name": "Villenouvelle", "code_commune": "31589", "code_departement": "31", "created_at": "2026-02-25T08:48:38.087Z" }, "geometry": { "type": "Point", "coordinates": [ 1.678582514302906, 43.446527974936934 ] } },
{ "type": "Feature", "properties": { "id": 466, "name": "Montgiscard", "code_commune": "31381", "code_departement": "31", "created_at": "2026-02-25T08:48:38.087Z" }, "geometry": { "type": "Point", "coordinates": [ 1.589429584770341, 43.472575057531259 ] } },
{ "type": "Feature", "properties": { "id": 467, "name": "Avignonet-Lauragais", "code_commune": "31037", "code_departement": "31", "created_at": "2026-02-25T08:48:38.087Z" }, "geometry": { "type": "Point", "coordinates": [ 1.793911884035244, 43.362671553216792 ] } },
{ "type": "Feature", "properties": { "id": 468, "name": "Castelnaudary", "code_commune": "11076", "code_departement": "11", "created_at": "2026-02-25T08:48:38.088Z" }, "geometry": { "type": "Point", "coordinates": [ 1.964582210013549, 43.309152456356969 ] } },
{ "type": "Feature", "properties": { "id": 469, "name": "Revel", "code_commune": "31451", "code_departement": "31", "created_at": "2026-02-25T08:48:38.088Z" }, "geometry": { "type": "Point", "coordinates": [ 1.995315675367312, 43.466821589082549 ] } },
{ "type": "Feature", "properties": { "id": 470, "name": "Conques-sur-Orbiel", "code_commune": "11099", "code_departement": "11", "created_at": "2026-02-25T08:48:38.088Z" }, "geometry": { "type": "Point", "coordinates": [ 2.367056772989584, 43.286822873259673 ] } },
{ "type": "Feature", "properties": { "id": 471, "name": "Conques-sur-Orbiel", "code_commune": "11099", "code_departement": "11", "created_at": "2026-02-25T08:48:38.088Z" }, "geometry": { "type": "Point", "coordinates": [ 2.362473961802975, 43.2859597785693 ] } },
{ "type": "Feature", "properties": { "id": 472, "name": "Bram", "code_commune": "11049", "code_departement": "11", "created_at": "2026-02-25T08:48:38.088Z" }, "geometry": { "type": "Point", "coordinates": [ 2.127830730605333, 43.24227518788107 ] } },
{ "type": "Feature", "properties": { "id": 473, "name": "Limoux", "code_commune": "11206", "code_departement": "11", "created_at": "2026-02-25T08:48:38.088Z" }, "geometry": { "type": "Point", "coordinates": [ 2.23057254319838, 43.061392007705876 ] } },
{ "type": "Feature", "properties": { "id": 474, "name": "Carcassonne", "code_commune": "11069", "code_departement": "11", "created_at": "2026-02-25T08:48:38.088Z" }, "geometry": { "type": "Point", "coordinates": [ 2.318462692310758, 43.203734528846866 ] } },
{ "type": "Feature", "properties": { "id": 475, "name": "Berriac", "code_commune": "11037", "code_departement": "11", "created_at": "2026-02-25T08:48:38.088Z" }, "geometry": { "type": "Point", "coordinates": [ 2.389966600435858, 43.211468483691178 ] } },
{ "type": "Feature", "properties": { "id": 476, "name": "Capendu", "code_commune": "11068", "code_departement": "11", "created_at": "2026-02-25T08:48:38.088Z" }, "geometry": { "type": "Point", "coordinates": [ 2.548616130358691, 43.190476480922939 ] } },
{ "type": "Feature", "properties": { "id": 477, "name": "Lézignan-Corbières", "code_commune": "11203", "code_departement": "11", "created_at": "2026-02-25T08:48:38.088Z" }, "geometry": { "type": "Point", "coordinates": [ 2.778543130662377, 43.201314872352434 ] } },
{ "type": "Feature", "properties": { "id": 478, "name": "Castelnau-d'Aude", "code_commune": "11077", "code_departement": "11", "created_at": "2026-02-25T08:48:38.088Z" }, "geometry": { "type": "Point", "coordinates": [ 2.676197666037921, 43.242490326759302 ] } },
{ "type": "Feature", "properties": { "id": 479, "name": "Sauveterre", "code_commune": "81278", "code_departement": "81", "created_at": "2026-02-25T08:48:38.088Z" }, "geometry": { "type": "Point", "coordinates": [ 2.564619064074579, 43.469476374779035 ] } },
{ "type": "Feature", "properties": { "id": 480, "name": "Saint-Pons-de-Thomières", "code_commune": "34284", "code_departement": "34", "created_at": "2026-02-25T08:48:38.088Z" }, "geometry": { "type": "Point", "coordinates": [ 2.788883539541034, 43.497311654920395 ] } },
{ "type": "Feature", "properties": { "id": 481, "name": "Lacaune", "code_commune": "81124", "code_departement": "81", "created_at": "2026-02-25T08:48:38.088Z" }, "geometry": { "type": "Point", "coordinates": [ 2.681925790748794, 43.710081484033537 ] } },
{ "type": "Feature", "properties": { "id": 482, "name": "Barre", "code_commune": "81023", "code_departement": "81", "created_at": "2026-02-25T08:48:38.088Z" }, "geometry": { "type": "Point", "coordinates": [ 2.797402357574498, 43.729265124909986 ] } },
{ "type": "Feature", "properties": { "id": 483, "name": "Montlaur", "code_commune": "12154", "code_departement": "12", "created_at": "2026-02-25T08:48:38.088Z" }, "geometry": { "type": "Point", "coordinates": [ 2.834307906146512, 43.881731090940789 ] } },
{ "type": "Feature", "properties": { "id": 484, "name": "Réquista", "code_commune": "12197", "code_departement": "12", "created_at": "2026-02-25T08:48:38.088Z" }, "geometry": { "type": "Point", "coordinates": [ 2.520286701597735, 44.036163988843683 ] } },
{ "type": "Feature", "properties": { "id": 485, "name": "Miolles", "code_commune": "81167", "code_departement": "81", "created_at": "2026-02-25T08:48:38.088Z" }, "geometry": { "type": "Point", "coordinates": [ 2.566985041899417, 43.873827273679616 ] } },
{ "type": "Feature", "properties": { "id": 486, "name": "Saint-Juéry", "code_commune": "81257", "code_departement": "81", "created_at": "2026-02-25T08:48:38.088Z" }, "geometry": { "type": "Point", "coordinates": [ 2.220170812817826, 43.950899515351324 ] } },
{ "type": "Feature", "properties": { "id": 487, "name": "Albi", "code_commune": "81004", "code_departement": "81", "created_at": "2026-02-25T08:48:38.088Z" }, "geometry": { "type": "Point", "coordinates": [ 2.138126080944662, 43.954225323451105 ] } },
{ "type": "Feature", "properties": { "id": 488, "name": "Albi", "code_commune": "81004", "code_departement": "81", "created_at": "2026-02-25T08:48:38.088Z" }, "geometry": { "type": "Point", "coordinates": [ 2.179338132528409, 43.924584462603363 ] } },
{ "type": "Feature", "properties": { "id": 489, "name": "Réalmont", "code_commune": "81222", "code_departement": "81", "created_at": "2026-02-25T08:48:38.088Z" }, "geometry": { "type": "Point", "coordinates": [ 2.196778246174495, 43.771679660726726 ] } },
{ "type": "Feature", "properties": { "id": 490, "name": "Vabre", "code_commune": "81305", "code_departement": "81", "created_at": "2026-02-25T08:48:38.088Z" }, "geometry": { "type": "Point", "coordinates": [ 2.415388826231868, 43.665679285416743 ] } },
{ "type": "Feature", "properties": { "id": 491, "name": "Aussillon", "code_commune": "81021", "code_departement": "81", "created_at": "2026-02-25T08:48:38.088Z" }, "geometry": { "type": "Point", "coordinates": [ 2.363430129765557, 43.511970299785531 ] } },
{ "type": "Feature", "properties": { "id": 492, "name": "Castres", "code_commune": "81065", "code_departement": "81", "created_at": "2026-02-25T08:48:38.088Z" }, "geometry": { "type": "Point", "coordinates": [ 2.241614669810273, 43.584780176237906 ] } },
{ "type": "Feature", "properties": { "id": 493, "name": "Castres", "code_commune": "81065", "code_departement": "81", "created_at": "2026-02-25T08:48:38.088Z" }, "geometry": { "type": "Point", "coordinates": [ 2.251231312045017, 43.622321688817578 ] } },
{ "type": "Feature", "properties": { "id": 494, "name": "Graulhet", "code_commune": "81105", "code_departement": "81", "created_at": "2026-02-25T08:48:38.088Z" }, "geometry": { "type": "Point", "coordinates": [ 1.995413302247111, 43.767733342991292 ] } },
{ "type": "Feature", "properties": { "id": 495, "name": "Marzens", "code_commune": "81157", "code_departement": "81", "created_at": "2026-02-25T08:48:38.088Z" }, "geometry": { "type": "Point", "coordinates": [ 1.82669657662011, 43.67387763220178 ] } },
{ "type": "Feature", "properties": { "id": 496, "name": "Auriac-sur-Vendinelle", "code_commune": "31026", "code_departement": "31", "created_at": "2026-02-25T08:48:38.088Z" }, "geometry": { "type": "Point", "coordinates": [ 1.804007501984034, 43.523154905400681 ] } },
{ "type": "Feature", "properties": { "id": 497, "name": "Caraman", "code_commune": "31106", "code_departement": "31", "created_at": "2026-02-25T08:48:38.088Z" }, "geometry": { "type": "Point", "coordinates": [ 1.708756344185247, 43.564099533320942 ] } },
{ "type": "Feature", "properties": { "id": 498, "name": "Saint-Pierre-de-Lages", "code_commune": "31512", "code_departement": "31", "created_at": "2026-02-25T08:48:38.088Z" }, "geometry": { "type": "Point", "coordinates": [ 1.634678469584355, 43.566286812801209 ] } },
{ "type": "Feature", "properties": { "id": 499, "name": "Lanta", "code_commune": "31271", "code_departement": "31", "created_at": "2026-02-25T08:48:38.088Z" }, "geometry": { "type": "Point", "coordinates": [ 1.659430453175421, 43.570359682640508 ] } },
{ "type": "Feature", "properties": { "id": 500, "name": "Verfeil", "code_commune": "31573", "code_departement": "31", "created_at": "2026-02-25T08:48:38.088Z" }, "geometry": { "type": "Point", "coordinates": [ 1.670812870072687, 43.629853886911505 ] } },
{ "type": "Feature", "properties": { "id": 501, "name": "Balma", "code_commune": "31044", "code_departement": "31", "created_at": "2026-02-25T08:48:38.088Z" }, "geometry": { "type": "Point", "coordinates": [ 1.502546708802906, 43.636230154271459 ] } },
{ "type": "Feature", "properties": { "id": 502, "name": "Balma", "code_commune": "31044", "code_departement": "31", "created_at": "2026-02-25T08:48:38.088Z" }, "geometry": { "type": "Point", "coordinates": [ 1.49290260575745, 43.615858305808409 ] } },
{ "type": "Feature", "properties": { "id": 503, "name": "Labège", "code_commune": "31254", "code_departement": "31", "created_at": "2026-02-25T08:48:38.088Z" }, "geometry": { "type": "Point", "coordinates": [ 1.510649183092043, 43.552832864426634 ] } },
{ "type": "Feature", "properties": { "id": 504, "name": "Escalquens", "code_commune": "31169", "code_departement": "31", "created_at": "2026-02-25T08:48:38.089Z" }, "geometry": { "type": "Point", "coordinates": [ 1.535397442791309, 43.518037960182994 ] } },
{ "type": "Feature", "properties": { "id": 505, "name": "Labège", "code_commune": "31254", "code_departement": "31", "created_at": "2026-02-25T08:48:38.089Z" }, "geometry": { "type": "Point", "coordinates": [ 1.520873870319407, 43.525935535078183 ] } },
{ "type": "Feature", "properties": { "id": 506, "name": "Castanet-Tolosan", "code_commune": "31113", "code_departement": "31", "created_at": "2026-02-25T08:48:38.089Z" }, "geometry": { "type": "Point", "coordinates": [ 1.495298322098199, 43.518515166093984 ] } },
{ "type": "Feature", "properties": { "id": 507, "name": "Ramonville-Saint-Agne", "code_commune": "31446", "code_departement": "31", "created_at": "2026-02-25T08:48:38.089Z" }, "geometry": { "type": "Point", "coordinates": [ 1.479817812513227, 43.553737749232681 ] } },
{ "type": "Feature", "properties": { "id": 508, "name": "Toulouse", "code_commune": "31555", "code_departement": "31", "created_at": "2026-02-25T08:48:38.089Z" }, "geometry": { "type": "Point", "coordinates": [ 1.420674847585031, 43.547590236470064 ] } },
{ "type": "Feature", "properties": { "id": 509, "name": "Toulouse", "code_commune": "31555", "code_departement": "31", "created_at": "2026-02-25T08:48:38.089Z" }, "geometry": { "type": "Point", "coordinates": [ 1.421076387574021, 43.567455562518674 ] } },
{ "type": "Feature", "properties": { "id": 510, "name": "Portet-sur-Garonne", "code_commune": "31433", "code_departement": "31", "created_at": "2026-02-25T08:48:38.089Z" }, "geometry": { "type": "Point", "coordinates": [ 1.386769784415552, 43.529371202731561 ] } },
{ "type": "Feature", "properties": { "id": 511, "name": "Toulouse", "code_commune": "31555", "code_departement": "31", "created_at": "2026-02-25T08:48:38.089Z" }, "geometry": { "type": "Point", "coordinates": [ 1.380468722178846, 43.566750669344643 ] } },
{ "type": "Feature", "properties": { "id": 512, "name": "Colomiers", "code_commune": "31149", "code_departement": "31", "created_at": "2026-02-25T08:48:38.089Z" }, "geometry": { "type": "Point", "coordinates": [ 1.357099202383067, 43.600524162712226 ] } },
{ "type": "Feature", "properties": { "id": 513, "name": "Colomiers", "code_commune": "31149", "code_departement": "31", "created_at": "2026-02-25T08:48:38.089Z" }, "geometry": { "type": "Point", "coordinates": [ 1.309718906092631, 43.596468335720658 ] } },
{ "type": "Feature", "properties": { "id": 514, "name": "Toulouse", "code_commune": "31555", "code_departement": "31", "created_at": "2026-02-25T08:48:38.089Z" }, "geometry": { "type": "Point", "coordinates": [ 1.418109769596697, 43.616980600054468 ] } },
{ "type": "Feature", "properties": { "id": 515, "name": "Toulouse", "code_commune": "31555", "code_departement": "31", "created_at": "2026-02-25T08:48:38.089Z" }, "geometry": { "type": "Point", "coordinates": [ 1.420750715584462, 43.600030681017422 ] } },
{ "type": "Feature", "properties": { "id": 516, "name": "Toulouse", "code_commune": "31555", "code_departement": "31", "created_at": "2026-02-25T08:48:38.089Z" }, "geometry": { "type": "Point", "coordinates": [ 1.452197104754409, 43.609471522356053 ] } },
{ "type": "Feature", "properties": { "id": 517, "name": "Toulouse", "code_commune": "31555", "code_departement": "31", "created_at": "2026-02-25T08:48:38.089Z" }, "geometry": { "type": "Point", "coordinates": [ 1.438223944076227, 43.590439674127097 ] } },
{ "type": "Feature", "properties": { "id": 518, "name": "Toulouse", "code_commune": "31555", "code_departement": "31", "created_at": "2026-02-25T08:48:38.089Z" }, "geometry": { "type": "Point", "coordinates": [ 1.477041032250129, 43.580711360718468 ] } },
{ "type": "Feature", "properties": { "id": 519, "name": "L'Union", "code_commune": "31561", "code_departement": "31", "created_at": "2026-02-25T08:48:38.089Z" }, "geometry": { "type": "Point", "coordinates": [ 1.464898857215678, 43.663580864375163 ] } },
{ "type": "Feature", "properties": { "id": 520, "name": "Pechbonnieu", "code_commune": "31410", "code_departement": "31", "created_at": "2026-02-25T08:48:38.089Z" }, "geometry": { "type": "Point", "coordinates": [ 1.461503518075109, 43.691512523331674 ] } },
{ "type": "Feature", "properties": { "id": 521, "name": "Saint-Alban", "code_commune": "31467", "code_departement": "31", "created_at": "2026-02-25T08:48:38.089Z" }, "geometry": { "type": "Point", "coordinates": [ 1.403853216370522, 43.693008178812704 ] } },
{ "type": "Feature", "properties": { "id": 522, "name": "Toulouse", "code_commune": "31555", "code_departement": "31", "created_at": "2026-02-25T08:48:38.089Z" }, "geometry": { "type": "Point", "coordinates": [ 1.412780839091494, 43.65873320504447 ] } },
{ "type": "Feature", "properties": { "id": 523, "name": "Blagnac", "code_commune": "31069", "code_departement": "31", "created_at": "2026-02-25T08:48:38.089Z" }, "geometry": { "type": "Point", "coordinates": [ 1.368416208380606, 43.653570830858357 ] } },
{ "type": "Feature", "properties": { "id": 524, "name": "Aussonne", "code_commune": "31032", "code_departement": "31", "created_at": "2026-02-25T08:48:38.089Z" }, "geometry": { "type": "Point", "coordinates": [ 1.34378394770868, 43.693824466784676 ] } },
{ "type": "Feature", "properties": { "id": 525, "name": "Bruguières", "code_commune": "31091", "code_departement": "31", "created_at": "2026-02-25T08:48:38.089Z" }, "geometry": { "type": "Point", "coordinates": [ 1.41958404244705, 43.751871614330433 ] } },
{ "type": "Feature", "properties": { "id": 526, "name": "Roquesérière", "code_commune": "31459", "code_departement": "31", "created_at": "2026-02-25T08:48:38.089Z" }, "geometry": { "type": "Point", "coordinates": [ 1.620759601668597, 43.741530356349315 ] } },
{ "type": "Feature", "properties": { "id": 528, "name": "Buzet-sur-Tarn", "code_commune": "31094", "code_departement": "31", "created_at": "2026-02-25T08:48:38.089Z" }, "geometry": { "type": "Point", "coordinates": [ 1.644468277090081, 43.764514824619923 ] } },
{ "type": "Feature", "properties": { "id": 529, "name": "Buzet-sur-Tarn", "code_commune": "31094", "code_departement": "31", "created_at": "2026-02-25T08:48:38.089Z" }, "geometry": { "type": "Point", "coordinates": [ 1.642452656586055, 43.767906004322221 ] } },
{ "type": "Feature", "properties": { "id": 530, "name": "Villemur-sur-Tarn", "code_commune": "31584", "code_departement": "31", "created_at": "2026-02-25T08:48:38.089Z" }, "geometry": { "type": "Point", "coordinates": [ 1.499817687370746, 43.869613974731195 ] } },
{ "type": "Feature", "properties": { "id": 531, "name": "Bessières", "code_commune": "31066", "code_departement": "31", "created_at": "2026-02-25T08:48:38.089Z" }, "geometry": { "type": "Point", "coordinates": [ 1.585051403843479, 43.796435460063925 ] } },
{ "type": "Feature", "properties": { "id": 532, "name": "Villemur-sur-Tarn", "code_commune": "31584", "code_departement": "31", "created_at": "2026-02-25T08:48:38.089Z" }, "geometry": { "type": "Point", "coordinates": [ 1.453763092441593, 43.836341178849104 ] } },
{ "type": "Feature", "properties": { "id": 533, "name": "Castelnau-d'Estrétefonds", "code_commune": "31118", "code_departement": "31", "created_at": "2026-02-25T08:48:38.089Z" }, "geometry": { "type": "Point", "coordinates": [ 1.366750465649181, 43.793974213963708 ] } },
{ "type": "Feature", "properties": { "id": 534, "name": "Castelnau-d'Estrétefonds", "code_commune": "31118", "code_departement": "31", "created_at": "2026-02-25T08:48:38.089Z" }, "geometry": { "type": "Point", "coordinates": [ 1.376802351913483, 43.793614023413582 ] } },
{ "type": "Feature", "properties": { "id": 535, "name": "Ondes", "code_commune": "31403", "code_departement": "31", "created_at": "2026-02-25T08:48:38.089Z" }, "geometry": { "type": "Point", "coordinates": [ 1.316706746979818, 43.783624432762082 ] } },
{ "type": "Feature", "properties": { "id": 536, "name": "Ondes", "code_commune": "31403", "code_departement": "31", "created_at": "2026-02-25T08:48:38.089Z" }, "geometry": { "type": "Point", "coordinates": [ 1.305327837698704, 43.784547525535991 ] } },
{ "type": "Feature", "properties": { "id": 537, "name": "Saint-Rustice", "code_commune": "31515", "code_departement": "31", "created_at": "2026-02-25T08:48:38.089Z" }, "geometry": { "type": "Point", "coordinates": [ 1.331256215042717, 43.800146905158101 ] } },
{ "type": "Feature", "properties": { "id": 538, "name": "Montauban", "code_commune": "82121", "code_departement": "82", "created_at": "2026-02-25T08:48:38.089Z" }, "geometry": { "type": "Point", "coordinates": [ 1.341050005859364, 44.00813873647634 ] } },
{ "type": "Feature", "properties": { "id": 539, "name": "Montauban", "code_commune": "82121", "code_departement": "82", "created_at": "2026-02-25T08:48:38.089Z" }, "geometry": { "type": "Point", "coordinates": [ 1.365739934382584, 44.038489728385457 ] } },
{ "type": "Feature", "properties": { "id": 540, "name": "Gaillac", "code_commune": "81099", "code_departement": "81", "created_at": "2026-02-25T08:48:38.090Z" }, "geometry": { "type": "Point", "coordinates": [ 1.885669155425246, 43.902954404439875 ] } },
{ "type": "Feature", "properties": { "id": 541, "name": "Saint-Marcel-Campes", "code_commune": "81262", "code_departement": "81", "created_at": "2026-02-25T08:48:38.090Z" }, "geometry": { "type": "Point", "coordinates": [ 1.989929572529522, 44.069814652382867 ] } },
{ "type": "Feature", "properties": { "id": 542, "name": "Saint-Antonin-Noble-Val", "code_commune": "82155", "code_departement": "82", "created_at": "2026-02-25T08:48:38.090Z" }, "geometry": { "type": "Point", "coordinates": [ 1.723635012427252, 44.160875327086863 ] } },
{ "type": "Feature", "properties": { "id": 543, "name": "Caussade", "code_commune": "82037", "code_departement": "82", "created_at": "2026-02-25T08:48:38.090Z" }, "geometry": { "type": "Point", "coordinates": [ 1.531264997295855, 44.162696391507154 ] } },
{ "type": "Feature", "properties": { "id": 544, "name": "Nègrepelisse", "code_commune": "82134", "code_departement": "82", "created_at": "2026-02-25T08:48:38.090Z" }, "geometry": { "type": "Point", "coordinates": [ 1.512102663314295, 44.050372562322281 ] } },
{ "type": "Feature", "properties": { "id": 545, "name": "Castelnau-Montratier", "code_commune": "46063", "code_departement": "46", "created_at": "2026-02-25T08:48:38.090Z" }, "geometry": { "type": "Point", "coordinates": [ 1.315550580624798, 44.301570933974318 ] } },
{ "type": "Feature", "properties": { "id": 546, "name": "Lalbenque", "code_commune": "46148", "code_departement": "46", "created_at": "2026-02-25T08:48:38.090Z" }, "geometry": { "type": "Point", "coordinates": [ 1.531004184842079, 44.356067400754831 ] } },
{ "type": "Feature", "properties": { "id": 547, "name": "Cahors", "code_commune": "46042", "code_departement": "46", "created_at": "2026-02-25T08:48:38.090Z" }, "geometry": { "type": "Point", "coordinates": [ 1.431194942652236, 44.449289868039948 ] } },
{ "type": "Feature", "properties": { "id": 548, "name": "Cahors", "code_commune": "46042", "code_departement": "46", "created_at": "2026-02-25T08:48:38.090Z" }, "geometry": { "type": "Point", "coordinates": [ 1.439670134800591, 44.497572505104969 ] } },
{ "type": "Feature", "properties": { "id": 549, "name": "Cajarc", "code_commune": "46045", "code_departement": "46", "created_at": "2026-02-25T08:48:38.090Z" }, "geometry": { "type": "Point", "coordinates": [ 1.832683798115341, 44.475247469676241 ] } },
{ "type": "Feature", "properties": { "id": 550, "name": "Villefranche-de-Rouergue", "code_commune": "12300", "code_departement": "12", "created_at": "2026-02-25T08:48:38.090Z" }, "geometry": { "type": "Point", "coordinates": [ 2.016213624197918, 44.35150245015879 ] } },
{ "type": "Feature", "properties": { "id": 551, "name": "Aubin", "code_commune": "12013", "code_departement": "12", "created_at": "2026-02-25T08:48:38.090Z" }, "geometry": { "type": "Point", "coordinates": [ 2.227206489118863, 44.541036658637552 ] } },
{ "type": "Feature", "properties": { "id": 552, "name": "Goutrens", "code_commune": "12111", "code_departement": "12", "created_at": "2026-02-25T08:48:38.090Z" }, "geometry": { "type": "Point", "coordinates": [ 2.405987839258997, 44.444406217314196 ] } },
{ "type": "Feature", "properties": { "id": 553, "name": "Vaureilles", "code_commune": "12290", "code_departement": "12", "created_at": "2026-02-25T08:48:38.090Z" }, "geometry": { "type": "Point", "coordinates": [ 2.193619803833968, 44.432909565760738 ] } },
{ "type": "Feature", "properties": { "id": 554, "name": "Pradinas", "code_commune": "12189", "code_departement": "12", "created_at": "2026-02-25T08:48:38.090Z" }, "geometry": { "type": "Point", "coordinates": [ 2.266418002211762, 44.272690041182145 ] } },
{ "type": "Feature", "properties": { "id": 555, "name": "Carmaux", "code_commune": "81060", "code_departement": "81", "created_at": "2026-02-25T08:48:38.090Z" }, "geometry": { "type": "Point", "coordinates": [ 2.145724316400539, 44.051268679397751 ] } },
{ "type": "Feature", "properties": { "id": 556, "name": "Baraqueville", "code_commune": "12056", "code_departement": "12", "created_at": "2026-02-25T08:48:38.090Z" }, "geometry": { "type": "Point", "coordinates": [ 2.42003061782397, 44.268918911100783 ] } },
{ "type": "Feature", "properties": { "id": 557, "name": "Arvieu", "code_commune": "12011", "code_departement": "12", "created_at": "2026-02-25T08:48:38.090Z" }, "geometry": { "type": "Point", "coordinates": [ 2.665343324819734, 44.184471473968152 ] } },
{ "type": "Feature", "properties": { "id": 558, "name": "Saint-Victor-et-Melvieu", "code_commune": "12251", "code_departement": "12", "created_at": "2026-02-25T08:48:38.090Z" }, "geometry": { "type": "Point", "coordinates": [ 2.805521512977384, 44.050903732076392 ] } },
{ "type": "Feature", "properties": { "id": 559, "name": "Bertholène", "code_commune": "12026", "code_departement": "12", "created_at": "2026-02-25T08:48:38.090Z" }, "geometry": { "type": "Point", "coordinates": [ 2.797335015538791, 44.394522722421307 ] } },
{ "type": "Feature", "properties": { "id": 560, "name": "Onet-le-Château", "code_commune": "12176", "code_departement": "12", "created_at": "2026-02-25T08:48:38.090Z" }, "geometry": { "type": "Point", "coordinates": [ 2.606783941604935, 44.35861379059083 ] } },
{ "type": "Feature", "properties": { "id": 561, "name": "Le Monastère", "code_commune": "12146", "code_departement": "12", "created_at": "2026-02-25T08:48:38.090Z" }, "geometry": { "type": "Point", "coordinates": [ 2.573476574632676, 44.34284630073963 ] } },
{ "type": "Feature", "properties": { "id": 562, "name": "Onet-le-Château", "code_commune": "12176", "code_departement": "12", "created_at": "2026-02-25T08:48:38.090Z" }, "geometry": { "type": "Point", "coordinates": [ 2.607669871550524, 44.387727816063943 ] } },
{ "type": "Feature", "properties": { "id": 563, "name": "Saint-Côme-d'Olt", "code_commune": "12216", "code_departement": "12", "created_at": "2026-02-25T08:48:38.090Z" }, "geometry": { "type": "Point", "coordinates": [ 2.78491711591568, 44.518835353781348 ] } },
{ "type": "Feature", "properties": { "id": 564, "name": "Sévérac d'Aveyron", "code_commune": "12270", "code_departement": "12", "created_at": "2026-02-25T08:48:38.090Z" }, "geometry": { "type": "Point", "coordinates": [ 3.055202320774568, 44.326622505401168 ] } },
{ "type": "Feature", "properties": { "id": 565, "name": "Bourgs sur Colagne", "code_commune": "48099", "code_departement": "48", "created_at": "2026-02-25T08:48:38.090Z" }, "geometry": { "type": "Point", "coordinates": [ 3.252990550800604, 44.508880905404524 ] } },
{ "type": "Feature", "properties": { "id": 566, "name": "Mende", "code_commune": "48095", "code_departement": "48", "created_at": "2026-02-25T08:48:38.090Z" }, "geometry": { "type": "Point", "coordinates": [ 3.497593246852178, 44.528583997286894 ] } },
{ "type": "Feature", "properties": { "id": 567, "name": "Florac Trois Rivières", "code_commune": "48061", "code_departement": "48", "created_at": "2026-02-25T08:48:38.090Z" }, "geometry": { "type": "Point", "coordinates": [ 3.582079231620283, 44.342753310317327 ] } },
{ "type": "Feature", "properties": { "id": 568, "name": "Trèves", "code_commune": "30332", "code_departement": "30", "created_at": "2026-02-25T08:48:38.090Z" }, "geometry": { "type": "Point", "coordinates": [ 3.3650684951807, 44.091943251038167 ] } },
{ "type": "Feature", "properties": { "id": 569, "name": "Millau", "code_commune": "12145", "code_departement": "12", "created_at": "2026-02-25T08:48:38.090Z" }, "geometry": { "type": "Point", "coordinates": [ 3.070562529502659, 44.093219010421393 ] } },
{ "type": "Feature", "properties": { "id": 570, "name": "Roquefort-sur-Soulzon", "code_commune": "12203", "code_departement": "12", "created_at": "2026-02-25T08:48:38.090Z" }, "geometry": { "type": "Point", "coordinates": [ 2.961232259560268, 43.975429284445511 ] } },
{ "type": "Feature", "properties": { "id": 571, "name": "Fondamente", "code_commune": "12155", "code_departement": "12", "created_at": "2026-02-25T08:48:38.091Z" }, "geometry": { "type": "Point", "coordinates": [ 3.121341020371921, 43.862344735499654 ] } },
{ "type": "Feature", "properties": { "id": 572, "name": "Arnac-sur-Dourdou", "code_commune": "12009", "code_departement": "12", "created_at": "2026-02-25T08:48:38.091Z" }, "geometry": { "type": "Point", "coordinates": [ 2.97392155866209, 43.724344324639844 ] } },
{ "type": "Feature", "properties": { "id": 573, "name": "Mons", "code_commune": "34160", "code_departement": "34", "created_at": "2026-02-25T08:48:38.091Z" }, "geometry": { "type": "Point", "coordinates": [ 2.940606287571874, 43.570322712256448 ] } },
{ "type": "Feature", "properties": { "id": 574, "name": "Bédarieux", "code_commune": "34028", "code_departement": "34", "created_at": "2026-02-25T08:48:38.091Z" }, "geometry": { "type": "Point", "coordinates": [ 3.169332607939081, 43.613218600984347 ] } },
{ "type": "Feature", "properties": { "id": 575, "name": "Lunas-les-Châteaux", "code_commune": "34144", "code_departement": "34", "created_at": "2026-02-25T08:48:38.091Z" }, "geometry": { "type": "Point", "coordinates": [ 3.178265460820419, 43.68548132056204 ] } },
{ "type": "Feature", "properties": { "id": 576, "name": "Lodève", "code_commune": "34142", "code_departement": "34", "created_at": "2026-02-25T08:48:38.091Z" }, "geometry": { "type": "Point", "coordinates": [ 3.313524773962882, 43.723113832701259 ] } },
{ "type": "Feature", "properties": { "id": 577, "name": "Clermont-l'Hérault", "code_commune": "34079", "code_departement": "34", "created_at": "2026-02-25T08:48:38.091Z" }, "geometry": { "type": "Point", "coordinates": [ 3.435922928843988, 43.62144464716112 ] } },
{ "type": "Feature", "properties": { "id": 578, "name": "Saint-Pons-de-Mauchiens", "code_commune": "34285", "code_departement": "34", "created_at": "2026-02-25T08:48:38.091Z" }, "geometry": { "type": "Point", "coordinates": [ 3.493459149759906, 43.51191072531828 ] } },
{ "type": "Feature", "properties": { "id": 579, "name": "Saint-André-de-Sangonis", "code_commune": "34239", "code_departement": "34", "created_at": "2026-02-25T08:48:38.091Z" }, "geometry": { "type": "Point", "coordinates": [ 3.513371669020841, 43.66066330697501 ] } },
{ "type": "Feature", "properties": { "id": 580, "name": "Saint-Maurice-Navacelles", "code_commune": "34277", "code_departement": "34", "created_at": "2026-02-25T08:48:38.091Z" }, "geometry": { "type": "Point", "coordinates": [ 3.558729462507185, 43.856259332133874 ] } },
{ "type": "Feature", "properties": { "id": 581, "name": "Avèze", "code_commune": "30026", "code_departement": "30", "created_at": "2026-02-25T08:48:38.091Z" }, "geometry": { "type": "Point", "coordinates": [ 3.599590701018453, 43.979683532225302 ] } },
{ "type": "Feature", "properties": { "id": 582, "name": "Moulès-et-Baucels", "code_commune": "34174", "code_departement": "34", "created_at": "2026-02-25T08:48:38.091Z" }, "geometry": { "type": "Point", "coordinates": [ 3.724776463357979, 43.945752618568129 ] } },
{ "type": "Feature", "properties": { "id": 583, "name": "Lasalle", "code_commune": "30140", "code_departement": "30", "created_at": "2026-02-25T08:48:38.091Z" }, "geometry": { "type": "Point", "coordinates": [ 3.858839960751412, 44.042770399551152 ] } },
{ "type": "Feature", "properties": { "id": 584, "name": "Anduze", "code_commune": "30010", "code_departement": "30", "created_at": "2026-02-25T08:48:38.091Z" }, "geometry": { "type": "Point", "coordinates": [ 3.985234138430588, 44.041391997109081 ] } },
{ "type": "Feature", "properties": { "id": 585, "name": "Sauve", "code_commune": "30311", "code_departement": "30", "created_at": "2026-02-25T08:48:38.091Z" }, "geometry": { "type": "Point", "coordinates": [ 3.947439369162272, 43.962666823710961 ] } },
{ "type": "Feature", "properties": { "id": 586, "name": "Sommières", "code_commune": "30321", "code_departement": "30", "created_at": "2026-02-25T08:48:38.091Z" }, "geometry": { "type": "Point", "coordinates": [ 4.077767825438222, 43.782357281795562 ] } },
{ "type": "Feature", "properties": { "id": 587, "name": "Montpellier", "code_commune": "34172", "code_departement": "34", "created_at": "2026-02-25T08:48:38.091Z" }, "geometry": { "type": "Point", "coordinates": [ 3.842233373428411, 43.647226552096654 ] } },
{ "type": "Feature", "properties": { "id": 588, "name": "Fabrègues", "code_commune": "34095", "code_departement": "34", "created_at": "2026-02-25T08:48:38.091Z" }, "geometry": { "type": "Point", "coordinates": [ 3.759129395944953, 43.533862168334622 ] } },
{ "type": "Feature", "properties": { "id": 589, "name": "Montpellier", "code_commune": "34172", "code_departement": "34", "created_at": "2026-02-25T08:48:38.091Z" }, "geometry": { "type": "Point", "coordinates": [ 3.864718771976915, 43.608717818994855 ] } },
{ "type": "Feature", "properties": { "id": 590, "name": "Saint-Jean-de-Védas", "code_commune": "34270", "code_departement": "34", "created_at": "2026-02-25T08:48:38.091Z" }, "geometry": { "type": "Point", "coordinates": [ 3.848470064714874, 43.581019638331632 ] } },
{ "type": "Feature", "properties": { "id": 591, "name": "Montpellier", "code_commune": "34172", "code_departement": "34", "created_at": "2026-02-25T08:48:38.091Z" }, "geometry": { "type": "Point", "coordinates": [ 3.895247621213243, 43.623247323312569 ] } },
{ "type": "Feature", "properties": { "id": 592, "name": "Montpellier", "code_commune": "34172", "code_departement": "34", "created_at": "2026-02-25T08:48:38.091Z" }, "geometry": { "type": "Point", "coordinates": [ 3.912042140202769, 43.596105058247133 ] } },
{ "type": "Feature", "properties": { "id": 593, "name": "Pérols", "code_commune": "34198", "code_departement": "34", "created_at": "2026-02-25T08:48:38.091Z" }, "geometry": { "type": "Point", "coordinates": [ 3.938635886335045, 43.572578641335348 ] } },
{ "type": "Feature", "properties": { "id": 594, "name": "Mauguio", "code_commune": "34154", "code_departement": "34", "created_at": "2026-02-25T08:48:38.091Z" }, "geometry": { "type": "Point", "coordinates": [ 4.003161671571966, 43.62622778376771 ] } },
{ "type": "Feature", "properties": { "id": 595, "name": "Vendargues", "code_commune": "34327", "code_departement": "34", "created_at": "2026-02-25T08:48:38.091Z" }, "geometry": { "type": "Point", "coordinates": [ 3.960712358971533, 43.655167497145229 ] } },
{ "type": "Feature", "properties": { "id": 596, "name": "Vestric-et-Candiac", "code_commune": "30347", "code_departement": "30", "created_at": "2026-02-25T08:48:38.091Z" }, "geometry": { "type": "Point", "coordinates": [ 4.247136774279792, 43.745929274560005 ] } },